{
"type": "FeatureCollection",
"name": "estaciones",
"crs": { "type": "name", "properties": { "name": "urn:ogc:def:crs:OGC:1.3:CRS84" } },
"features": [
{ "type": "Feature", "properties": { "direccion": "AUTOPISTA SILVIO PETTIROSSI Y CORDOBA", "tipo": "Estación de Servicio", "distrito": "LUQUE", "departamento": "CENTRAL", "distribuidor": "TAPIRACUAI (PETROCHACO SRL)", "operador": "LA CUMBRE ESTACIONES SA", "marker_icon": "PCH" }, "geometry": { "type": "Point", "coordinates": [ -57.51081353, -25.24414818 ] } },
{ "type": "Feature", "properties": { "direccion": "CNEL. MARTINEZ", "tipo": "Estación de Servicio", "distrito": "LUQUE", "departamento": "CENTRAL", "distribuidor": "TAPIRACUAI (PETROCHACO SRL)", "operador": "INVERSIONES SAN ISIDRO SA", "marker_icon": "PCH" }, "geometry": { "type": "Point", "coordinates": [ -57.48301694, -25.28628794 ] } },
{ "type": "Feature", "properties": { "direccion": "RUTA LUQUE AREGUA LAS RESIDENTAS C\/ SILVIO PETTIROSSI", "tipo": "Estación de Servicio", "distrito": "LUQUE", "departamento": "CENTRAL", "distribuidor": "PETROBRAS PARAGUAY SRL", "operador": "FELIPE LLORET SEGALES", "marker_icon": "PTBR" }, "geometry": { "type": "Point", "coordinates": [ -57.4827573, -25.27404011 ] } },
{ "type": "Feature", "properties": { "direccion": "ELIZARDO AQUINO Y SUDAMERICANA", "tipo": "Estación de Servicio", "distrito": "LUQUE", "departamento": "CENTRAL", "distribuidor": "PETROBRAS PARAGUAY SRL", "operador": "PORTAL SA", "marker_icon": "PTBR" }, "geometry": { "type": "Point", "coordinates": [ -57.51537969, -25.26316271 ] } },
{ "type": "Feature", "properties": { "direccion": "AUTOPISTA", "tipo": "Estación de Servicio", "distrito": "LUQUE", "departamento": "CENTRAL", "distribuidor": "PETROBRAS PARAGUAY SRL", "operador": "OPERACIONES COMERCIALES SA", "marker_icon": "PTBR" }, "geometry": { "type": "Point", "coordinates": [ -57.51438069, -25.2548235 ] } },
{ "type": "Feature", "properties": { "direccion": "LUQUE SAN BERNARDINO", "tipo": "Estación de Servicio", "distrito": "LUQUE", "departamento": "CENTRAL", "distribuidor": "PETROBRAS PARAGUAY SRL", "operador": "UMA SRL", "marker_icon": "PTBR" }, "geometry": { "type": "Point", "coordinates": [ -57.43211613, -25.23899867 ] } },
{ "type": "Feature", "properties": { "direccion": "GRAL. GENES Y CORRALES", "tipo": "Estación de Servicio", "distrito": "LUQUE", "departamento": "CENTRAL", "distribuidor": "PETROBRAS PARAGUAY SRL", "operador": "GABANA SA", "marker_icon": "PTBR" }, "geometry": { "type": "Point", "coordinates": [ -57.48346849, -25.26437029 ] } },
{ "type": "Feature", "properties": { "direccion": "FOTOGRAFOS DEL CHACO C\/ CRUZ DEL CHACO", "tipo": "Estación de Servicio", "distrito": "LUQUE", "departamento": "CENTRAL", "distribuidor": "PETROMAX SA", "operador": "ANTONIA C. SILVA MIERES", "marker_icon": "PMX" }, "geometry": { "type": "Point", "coordinates": [ -57.48649969, -25.31265944 ] } },
{ "type": "Feature", "properties": { "direccion": "MANUEL BRITEZ BORGES Y CAP. INSFRAN", "tipo": "Estación de Servicio", "distrito": "LUQUE", "departamento": "CENTRAL", "distribuidor": "PETROPAR", "operador": "PETROSUR SA", "marker_icon": "PTP" }, "geometry": { "type": "Point", "coordinates": [ -57.50293071, -25.29961283 ] } },
{ "type": "Feature", "properties": { "direccion": "PUERTO PINAZCO Y CHILE", "tipo": "Estación de Servicio", "distrito": "LUQUE", "departamento": "CENTRAL", "distribuidor": "PETROPAR", "operador": "EST. SERV. K Y M SRL", "marker_icon": "PTP" }, "geometry": { "type": "Point", "coordinates": [ -57.49512769, -25.29156097 ] } },
{ "type": "Feature", "properties": { "direccion": "GRAL. GARAY Y CAP. INSFRAN", "tipo": "Estación de Servicio", "distrito": "LUQUE", "departamento": "CENTRAL", "distribuidor": "PETROPAR", "operador": "PETROSUR SA", "marker_icon": "PTP" }, "geometry": { "type": "Point", "coordinates": [ -57.49587473, -25.27189386 ] } },
{ "type": "Feature", "properties": { "direccion": "CNEL. MARTINEZ Y SAN CARLOS", "tipo": "Estación de Servicio", "distrito": "LUQUE", "departamento": "CENTRAL", "distribuidor": "PETROPAR", "operador": "ALCIDES A. CHAPARRO MORENO", "marker_icon": "PTP" }, "geometry": { "type": "Point", "coordinates": [ -57.4778381, -25.2943761 ] } },
{ "type": "Feature", "properties": { "direccion": "AUTOPISTA SILVIO PETTIROSSI", "tipo": "Estación de Servicio", "distrito": "LUQUE", "departamento": "CENTRAL", "distribuidor": "PETROPAR", "operador": "ESTACION BAHIA SA", "marker_icon": "PTP" }, "geometry": { "type": "Point", "coordinates": [ -57.51023626, -25.2273813 ] } },
{ "type": "Feature", "properties": { "direccion": "ITAPUAMI C\/ BELLA VISTA", "tipo": "Estación de Servicio", "distrito": "LUQUE", "departamento": "CENTRAL", "distribuidor": "GASUR SRL", "operador": "SERVICENTRO FERCAB SACI", "marker_icon": "GSR" }, "geometry": { "type": "Point", "coordinates": [ -57.45515112, -25.23944012 ] } },
{ "type": "Feature", "properties": { "direccion": "RUTA LIMPIO LUQUE", "tipo": "Estación de Servicio", "distrito": "LUQUE", "departamento": "CENTRAL", "distribuidor": "BARCOS Y RODADOS SA", "operador": "COMBU BAR COMPANY SRL", "marker_icon": "BR" }, "geometry": { "type": "Point", "coordinates": [ -57.48544303, -25.24749896 ] } },
{ "type": "Feature", "properties": { "direccion": "FULGENCIO YEGROS Y CMDTE. CABAÑAS", "tipo": "Puesto de Consumo Propio", "distrito": "LUQUE", "departamento": "CENTRAL", "distribuidor": "BARCOS Y RODADOS SA", "operador": "EMP. TRANS. VANGUARDIA SACI", "marker_icon": "BR" }, "geometry": { "type": "Point", "coordinates": [ -57.48904893, -25.26207799 ] } },
{ "type": "Feature", "properties": { "direccion": "ITURBE Y AZARA", "tipo": "Estación de Servicio", "distrito": "LUQUE", "departamento": "CENTRAL", "distribuidor": "BARCOS Y RODADOS SA", "operador": "ANGELINA CAÑETE PEREZ", "marker_icon": "BR" }, "geometry": { "type": "Point", "coordinates": [ -57.48657289, -25.26713724 ] } },
{ "type": "Feature", "properties": { "direccion": "LAS RESIDENTAS E YCUA DURE", "tipo": "Estación de Servicio", "distrito": "LUQUE", "departamento": "CENTRAL", "distribuidor": "PUMA ENERGY PARAGUAY SA", "operador": "CARMEN GARCIA VDA. DE RECALDE", "marker_icon": "PUM" }, "geometry": { "type": "Point", "coordinates": [ -57.4721346, -25.28117629 ] } },
{ "type": "Feature", "properties": { "direccion": "GRAL. AQUINO Y GRAL. CABALLERO", "tipo": "Estación de Servicio", "distrito": "LUQUE", "departamento": "CENTRAL", "distribuidor": "BARCOS Y RODADOS SA", "operador": "LUMATA SRL", "marker_icon": "BR" }, "geometry": { "type": "Point", "coordinates": [ -57.52273486, -25.27589618 ] } },
{ "type": "Feature", "properties": { "direccion": "GRAL. GENES Y SAN CELESTINO", "tipo": "Estación de Servicio", "distrito": "LUQUE", "departamento": "CENTRAL", "distribuidor": "BARCOS Y RODADOS SA", "operador": "RODRIGO CAÑETE LEGUIZAMON", "marker_icon": "BR" }, "geometry": { "type": "Point", "coordinates": [ -57.46815694, -25.25349962 ] } },
{ "type": "Feature", "properties": { "direccion": "OFICIAL NILDO MENDEZ Y VIRGEN DE CAACUPE", "tipo": "Estación de Servicio", "distrito": "LUQUE", "departamento": "CENTRAL", "distribuidor": "BARCOS Y RODADOS SA", "operador": "ARAL PARAGUAY SRL", "marker_icon": "BR" }, "geometry": { "type": "Point", "coordinates": [ -57.52644098, -25.29012051 ] } },
{ "type": "Feature", "properties": { "direccion": "RUTA LIMPIO LUQUE", "tipo": "Estación de Servicio", "distrito": "LUQUE", "departamento": "CENTRAL", "distribuidor": "BARCOS Y RODADOS SA", "operador": "EMP. TRANS. CIUDAD DE LUQUE SRL", "marker_icon": "BR" }, "geometry": { "type": "Point", "coordinates": [ -57.47822504, -25.22063783 ] } },
{ "type": "Feature", "properties": { "direccion": "AUTOPISTA SILVIO PETTIROSSI", "tipo": "Estación de Servicio", "distrito": "LUQUE", "departamento": "CENTRAL", "distribuidor": "BARCOS Y RODADOS SA", "operador": "COMBU BAR COMPANY SRL", "marker_icon": "BR" }, "geometry": { "type": "Point", "coordinates": [ -57.52195172, -25.26348752 ] } },
{ "type": "Feature", "properties": { "direccion": "CNEL. MARTINEZ Y COMISARIO GILL", "tipo": "Estación de Servicio", "distrito": "LUQUE", "departamento": "CENTRAL", "distribuidor": "BARCOS Y RODADOS SA", "operador": "DILUAC SRL", "marker_icon": "BR" }, "geometry": { "type": "Point", "coordinates": [ -57.48516872, -25.27942744 ] } },
{ "type": "Feature", "properties": { "direccion": "GRAL. GARAY Y GRAL. MANUEL BRITEZ", "tipo": "Estación de Servicio", "distrito": "LUQUE", "departamento": "CENTRAL", "distribuidor": "BARCOS Y RODADOS SA", "operador": "ECOBAR SRL", "marker_icon": "BR" }, "geometry": { "type": "Point", "coordinates": [ -57.50304983, -25.30000409 ] } },
{ "type": "Feature", "properties": { "direccion": "CNEL. BOGADO Y MAESTRO FELIX", "tipo": "Estación de Servicio", "distrito": "LUQUE", "departamento": "CENTRAL", "distribuidor": "BARCOS Y RODADOS SA", "operador": "ESTACION DE SERVICIOS MC SRL", "marker_icon": "BR" }, "geometry": { "type": "Point", "coordinates": [ -57.49422068, -25.25801305 ] } },
{ "type": "Feature", "properties": { "direccion": "VALERIANO ZEBALLOS E ITURBE", "tipo": "Estación de Servicio", "distrito": "LUQUE", "departamento": "CENTRAL", "distribuidor": "COPETROL SA", "operador": "GLADIS V. ALMADA DE NUÑEZ", "marker_icon": "CPT" }, "geometry": { "type": "Point", "coordinates": [ -57.4899404, -25.26671345 ] } },
{ "type": "Feature", "properties": { "direccion": "SAN MARTIN Y CNEL. OVIEDO", "tipo": "Estación de Servicio", "distrito": "LUQUE", "departamento": "CENTRAL", "distribuidor": "COPETROL SA", "operador": "GESTION DE SERVICIOS SA", "marker_icon": "CPT" }, "geometry": { "type": "Point", "coordinates": [ -57.50226196, -25.26896612 ] } },
{ "type": "Feature", "properties": { "direccion": "CORRALES Y B. CAMBORIU", "tipo": "Estación de Servicio", "distrito": "LUQUE", "departamento": "CENTRAL", "distribuidor": "COPETROL SA", "operador": "GESTION DE SERVICIOS SA", "marker_icon": "CPT" }, "geometry": { "type": "Point", "coordinates": [ -57.48497881, -25.26818462 ] } },
{ "type": "Feature", "properties": { "direccion": "PEDRO J. CABALLERO Y CMDTE. PERALTA", "tipo": "Estación de Servicio", "distrito": "LUQUE", "departamento": "CENTRAL", "distribuidor": "COPETROL SA", "operador": "SAN JOSE GROUP CORPORATION SA", "marker_icon": "CPT" }, "geometry": { "type": "Point", "coordinates": [ -57.49493121, -25.26833979 ] } },
{ "type": "Feature", "properties": { "direccion": "CNEL. MARTINEZ Y GUILLERMO LEOZ", "tipo": "Estación de Servicio", "distrito": "LUQUE", "departamento": "CENTRAL", "distribuidor": "COPETROL SA", "operador": "MARCELINO ALFONZO GONZALEZ", "marker_icon": "CPT" }, "geometry": { "type": "Point", "coordinates": [ -57.48377959, -25.28176487 ] } },
{ "type": "Feature", "properties": { "direccion": "AMERICA Y KARANDAYTY", "tipo": "Estación de Servicio", "distrito": "LUQUE", "departamento": "CENTRAL", "distribuidor": "COPETROL SA", "operador": "GENERAL SANTOS SA", "marker_icon": "CPT" }, "geometry": { "type": "Point", "coordinates": [ -57.49962696, -25.25524869 ] } },
{ "type": "Feature", "properties": { "direccion": "NANAWA Y LEOPOLDO MALDONADO", "tipo": "Estación de Servicio", "distrito": "LUQUE", "departamento": "CENTRAL", "distribuidor": "COPETROL SA", "operador": "EL DORADO IMPORT- EXPOT SA", "marker_icon": "CPT" }, "geometry": { "type": "Point", "coordinates": [ -57.51864972, -25.28541308 ] } },
{ "type": "Feature", "properties": { "direccion": "GRAL. AQUINO Y VILLA ADELA", "tipo": "Estación de Servicio", "distrito": "LUQUE", "departamento": "CENTRAL", "distribuidor": "COPETROL SA", "operador": "GESTION DE SERVICIOS SA", "marker_icon": "CPT" }, "geometry": { "type": "Point", "coordinates": [ -57.50993366, -25.26415073 ] } },
{ "type": "Feature", "properties": { "direccion": "JOSE CONCEPCION ORTIZ C\/ LAPACHAL", "tipo": "Estación de Servicio", "distrito": "LUQUE", "departamento": "CENTRAL", "distribuidor": "COPETROL SA", "operador": "GENERAL SANTOS SA", "marker_icon": "CPT" }, "geometry": { "type": "Point", "coordinates": [ -57.47607638, -25.27141227 ] } },
{ "type": "Feature", "properties": { "direccion": "GRAL. AQUINO Y JOSE DE SAN MARTIN", "tipo": "Estación de Servicio", "distrito": "LUQUE", "departamento": "CENTRAL", "distribuidor": "AXION ENERGY PARAGUAY SRL", "operador": "ESSO STANDARD PARAGUAY SRL", "marker_icon": "AXN" }, "geometry": { "type": "Point", "coordinates": [ -57.50125648, -25.2656861 ] } },
{ "type": "Feature", "properties": { "direccion": "JOSE DE SAN MARTIN Y SAUCE", "tipo": "Estación de Servicio", "distrito": "LUQUE", "departamento": "CENTRAL", "distribuidor": "COPETROL SA", "operador": "TRITON SRL", "marker_icon": "CPT" }, "geometry": { "type": "Point", "coordinates": [ -57.50247844, -25.27081947 ] } },
{ "type": "Feature", "properties": { "direccion": "HIPOLITO UNANUE Y CLAUDIO ARRUA", "tipo": "Estación de Servicio", "distrito": "LUQUE", "departamento": "CENTRAL", "distribuidor": "COPETROL SA", "operador": "CHRISTIAN WILBERTO ONIEVA SANTACRUZ", "marker_icon": "CPT" }, "geometry": { "type": "Point", "coordinates": [ -57.51039555, -25.27606124 ] } },
{ "type": "Feature", "properties": { "direccion": "CAMPO VIA Y PUERTO PINAZCO", "tipo": "Estación de Servicio", "distrito": "LUQUE", "departamento": "CENTRAL", "distribuidor": "COPETROL SA", "operador": "GENERAL SANTOS SA", "marker_icon": "CPT" }, "geometry": { "type": "Point", "coordinates": [ -57.49147799, -25.29213125 ] } },
{ "type": "Feature", "properties": { "direccion": "GRAL. MANUEL BRITEZ Y LIBERTAD", "tipo": "Estación de Servicio", "distrito": "LUQUE", "departamento": "CENTRAL", "distribuidor": "PETROSUR SA", "operador": "PETROSUR SA", "marker_icon": "PSR" }, "geometry": { "type": "Point", "coordinates": [ -57.51933508, -25.29671382 ] } },
{ "type": "Feature", "properties": { "direccion": "GRAL. MANUEL BRITEZ BORGES Y TERESA DE JESUS, SEGUNDA COMPAÑIA LAURELTY", "tipo": "Estación de Servicio", "distrito": "LUQUE", "departamento": "CENTRAL", "distribuidor": "COPETROL SA", "operador": "GENERAL SANTOS SA", "marker_icon": "CPT" }, "geometry": { "type": "Point", "coordinates": [ -57.51790752, -25.29697656 ] } },
{ "type": "Feature", "properties": { "direccion": "AUTOPISYA SILVIO PETTIROSSI Y TTE. CNE. RAMOS ALFARO", "tipo": "Estación de Servicio", "distrito": "LUQUE", "departamento": "CENTRAL", "distribuidor": "PETROPAR", "operador": "PETROPAR", "marker_icon": "PTP" }, "geometry": { "type": "Point", "coordinates": [ -57.51493486, -25.25769035 ] } },
{ "type": "Feature", "properties": { "direccion": "AUTOPISTA SILVIO PETTIROSI Y COCHABAMBA", "tipo": "Estación de Servicio", "distrito": "LUQUE", "departamento": "CENTRAL", "distribuidor": "COPETROL SA", "operador": "GESTION DE SERVICIOS SA", "marker_icon": "CPT" }, "geometry": { "type": "Point", "coordinates": [ -57.51127255, -25.24563333 ] } },
{ "type": "Feature", "properties": { "direccion": "PREDIO DEL AEROPUERTO SILVIO PETTIROSSI (PRIMERA BRIG. AEREA)", "tipo": "Estación de Servicio", "distrito": "LUQUE", "departamento": "CENTRAL", "distribuidor": "PETROBRAS PARAGUAY SRL", "operador": "PETROBRAS PARAGUAY SRL", "marker_icon": "PTBR" }, "geometry": { "type": "Point", "coordinates": [ -57.51821329, -25.25269665 ] } },
{ "type": "Feature", "properties": { "direccion": "PREDIO DEL AEROPUERTO SILVIO PETTIROSSI", "tipo": "Estación de Servicio", "distrito": "LUQUE", "departamento": "CENTRAL", "distribuidor": "PUMA ENERGY PARAGUAY SA", "operador": "PUMA ENERGY PARAGUAY SA", "marker_icon": "PUM" }, "geometry": { "type": "Point", "coordinates": [ -57.5167149, -25.24823017 ] } },
{ "type": "Feature", "properties": { "direccion": "RUTA LUQUE SAN BERNARDINO", "tipo": "Estación de Servicio", "distrito": "LUQUE", "departamento": "CENTRAL", "distribuidor": "COPETROL SA", "operador": "NELIDA ELIZABETH OSORIO", "marker_icon": "CPT" }, "geometry": { "type": "Point", "coordinates": [ -57.4299713, -25.23943797 ] } },
{ "type": "Feature", "properties": { "direccion": "RUTA LUQUE AREGUA Y SEGUNDO RIQUELME", "tipo": "Estación de Servicio", "distrito": "LUQUE", "departamento": "CENTRAL", "distribuidor": "COPETROL SA", "operador": "GENERAL SANTOS SA", "marker_icon": "CPT" }, "geometry": { "type": "Point", "coordinates": [ -57.46197721, -25.28629528 ] } },
{ "type": "Feature", "properties": { "direccion": "RUTA LUQUE SAN BERNARDINO", "tipo": "Estación de Servicio", "distrito": "LUQUE", "departamento": "CENTRAL", "distribuidor": "GAS CORONA SAECA", "operador": "ASIAN - PACIFIC IMPORT & EXPORT SA", "marker_icon": "COR" }, "geometry": { "type": "Point", "coordinates": [ -57.42546477, -25.23881834 ] } },
{ "type": "Feature", "properties": { "direccion": "MELO DE PORTUGAL Y LIBERTADORES DE AMERICA", "tipo": "Estación de Servicio", "distrito": "LUQUE", "departamento": "CENTRAL", "distribuidor": "COPETROL SA", "operador": "SAGRADA FAMILIA SRL", "marker_icon": "CPT" }, "geometry": { "type": "Point", "coordinates": [ -57.50325067, -25.27596236 ] } },
{ "type": "Feature", "properties": { "direccion": "CAP. ANDRES INSFRAN Y SAN BLAS", "tipo": "Estación de Servicio", "distrito": "LUQUE", "departamento": "CENTRAL", "distribuidor": "COMBUSTIBLES INTEGRAL TRADING SA", "operador": "ECOFULL SRL", "marker_icon": "INT" }, "geometry": { "type": "Point", "coordinates": [ -57.49960874, -25.28645977 ] } },
{ "type": "Feature", "properties": { "direccion": "CAP. ANDRES INSFRAN Y CELSA SPERATTI", "tipo": "Estación de Servicio", "distrito": "LUQUE", "departamento": "CENTRAL", "distribuidor": "PUMA ENERGY PARAGUAY SA", "operador": "SILVIA MARTINEZ DE ALVAREZ", "marker_icon": "PUM" }, "geometry": { "type": "Point", "coordinates": [ -57.49657079, -25.27421366 ] } },
{ "type": "Feature", "properties": { "direccion": "CERRO CORA Y LUIS A. DE HERRERA", "tipo": "Estación de Servicio", "distrito": "LUQUE", "departamento": "CENTRAL", "distribuidor": "PUMA ENERGY PARAGUAY SA", "operador": "GABANA SA", "marker_icon": "PUM" }, "geometry": { "type": "Point", "coordinates": [ -57.49600186, -25.26630363 ] } },
{ "type": "Feature", "properties": { "direccion": "SANTO DOMINGO Y VETERANOS DEL CHACO", "tipo": "Estación de Servicio", "distrito": "LUQUE", "departamento": "CENTRAL", "distribuidor": "PUMA ENERGY PARAGUAY SA", "operador": "LAVA VIC 2 SA Y OTRO", "marker_icon": "PUM" }, "geometry": { "type": "Point", "coordinates": [ -57.50441175, -25.28853089 ] } },
{ "type": "Feature", "properties": { "direccion": "TTE. ROJAS SILVA Y BENIGNO GONZALEZ", "tipo": "Estación de Servicio", "distrito": "LUQUE", "departamento": "CENTRAL", "distribuidor": "PUMA ENERGY PARAGUAY SA", "operador": "DISTRIBUIDORA OONDIVEMI IMPORT-EXPORT SA", "marker_icon": "PUM" }, "geometry": { "type": "Point", "coordinates": [ -57.48775213, -25.26450813 ] } },
{ "type": "Feature", "properties": { "direccion": "RUTA LUQUE LIMPIO Y SANTA CATARINA", "tipo": "Estación de Servicio", "distrito": "LUQUE", "departamento": "CENTRAL", "distribuidor": "COPEG SA", "operador": "SA & BE SRL", "marker_icon": "CPG" }, "geometry": { "type": "Point", "coordinates": [ -57.47476526, -25.23909509 ] } },
{ "type": "Feature", "properties": { "direccion": "VIRGEN DEL ROSARIO Y PASO BOGARIN", "tipo": "Estación de Servicio", "distrito": "LUQUE", "departamento": "CENTRAL", "distribuidor": "COPETROL SA", "operador": "GESTION DE SERVICIOS SA", "marker_icon": "CPT" }, "geometry": { "type": "Point", "coordinates": [ -57.48874671, -25.25368097 ] } },
{ "type": "Feature", "properties": { "direccion": "BOQUERON E\/ BENJAMIN ACEVAL Y GRAL. DIAZ", "tipo": "Estación de Servicio", "distrito": "LUQUE", "departamento": "CENTRAL", "distribuidor": "COPEG SA", "operador": "GLADIS GREGORIA IBARROLA DE CHAMORRO", "marker_icon": "CPG" }, "geometry": { "type": "Point", "coordinates": [ -57.50006783, -25.27245339 ] } },
{ "type": "Feature", "properties": { "direccion": "GRAL. AQUINO Y CARLOTA PALMEROLA", "tipo": "Estación de Servicio", "distrito": "LUQUE", "departamento": "CENTRAL", "distribuidor": "PETROSUR SA", "operador": "GABANA SA", "marker_icon": "PSR" }, "geometry": { "type": "Point", "coordinates": [ -57.5328112, -25.28059633 ] } },
{ "type": "Feature", "properties": { "direccion": "EDUARDO CABRERA Y MEDICOS LUQUEÑOS", "tipo": "Estación de Servicio", "distrito": "LUQUE", "departamento": "CENTRAL", "distribuidor": "PETROSUR SA", "operador": "PETROSUR SA", "marker_icon": "PSR" }, "geometry": { "type": "Point", "coordinates": [ -57.47485283, -25.26684607 ] } },
{ "type": "Feature", "properties": { "direccion": "ITAPUAMI Y MARCO GALEANO", "tipo": "Estación de Servicio", "distrito": "LUQUE", "departamento": "CENTRAL", "distribuidor": "PETROSUR SA", "operador": "EMP. TRANSP. 15 DE MAYO SRL", "marker_icon": "PSR" }, "geometry": { "type": "Point", "coordinates": [ -57.44928551, -25.22433362 ] } },
{ "type": "Feature", "properties": { "direccion": "RUTA LUQUE SAN BERNARDINO Y TRINIDAD", "tipo": "Estación de Servicio", "distrito": "LUQUE", "departamento": "CENTRAL", "distribuidor": "COPETROL SA", "operador": "GLADIS VICTORIA ALMADA VDA. DE NUEZ", "marker_icon": "CPT" }, "geometry": { "type": "Point", "coordinates": [ -57.46466873, -25.2534979 ] } },
{ "type": "Feature", "properties": { "direccion": "RUTA LUQUE LIMPIO", "tipo": "Estación de Servicio", "distrito": "LUQUE", "departamento": "CENTRAL", "distribuidor": "FUELPAR SA", "operador": "HISPANOCOMEX SRL", "marker_icon": "FLP" }, "geometry": { "type": "Point", "coordinates": [ -57.47679317, -25.24238114 ] } },
{ "type": "Feature", "properties": { "direccion": "RUTA LUQUE LIMPIO", "tipo": "Estación de Servicio", "distrito": "LUQUE", "departamento": "CENTRAL", "distribuidor": "COPETROL SA", "operador": "GENERAL SANTOS SA", "marker_icon": "CPT" }, "geometry": { "type": "Point", "coordinates": [ -57.47432515, -25.23805226 ] } },
{ "type": "Feature", "properties": { "direccion": "RUTA LAS RESIDENTAS", "tipo": "Estación de Servicio", "distrito": "LUQUE", "departamento": "CENTRAL", "distribuidor": "PETROPAR", "operador": "GLORIA RAQUEL LATERRA BARRIOS", "marker_icon": "PTP" }, "geometry": { "type": "Point", "coordinates": [ -57.46098448, -25.28667184 ] } },
{ "type": "Feature", "properties": { "direccion": "RUTA LUQUE AREGUA Y JOAQUIN ESPINOLA", "tipo": "Estación de Servicio", "distrito": "LUQUE", "departamento": "CENTRAL", "distribuidor": "BARCOS Y RODADOS SA", "operador": "ISIDRO CAÑETE", "marker_icon": "BR" }, "geometry": { "type": "Point", "coordinates": [ -57.47363708, -25.27958094 ] } },
{ "type": "Feature", "properties": { "direccion": "SAN ISIDRO Y FRANCISCO ACUA DE FIGUEROA", "tipo": "Estación de Servicio", "distrito": "LAMBARE", "departamento": "CENTRAL", "distribuidor": "TAPIRACUAI (PETROCHACO SRL)", "operador": "GENERAL SANTOS SA", "marker_icon": "PCH" }, "geometry": { "type": "Point", "coordinates": [ -57.59841334, -25.3563384 ] } },
{ "type": "Feature", "properties": { "direccion": "CACIQUE LAMBARE Y VENCEDORES DEL CHACO", "tipo": "Estación de Servicio", "distrito": "LAMBARE", "departamento": "CENTRAL", "distribuidor": "TAPIRACUAI (PETROCHACO SRL)", "operador": "GENERAL SANTOS SA", "marker_icon": "PCH" }, "geometry": { "type": "Point", "coordinates": [ -57.59928934, -25.34013095 ] } },
{ "type": "Feature", "properties": { "direccion": "BRUNO GUGGIARI Y SAN RAFAEL", "tipo": "Estación de Servicio", "distrito": "LAMBARE", "departamento": "CENTRAL", "distribuidor": "PETROBRAS PARAGUAY SRL", "operador": "LUA SRL", "marker_icon": "PTBR" }, "geometry": { "type": "Point", "coordinates": [ -57.61664634, -25.32422614 ] } },
{ "type": "Feature", "properties": { "direccion": "CACIQUE LAMBARE Y VIENTE I. ITURBE", "tipo": "Estación de Servicio", "distrito": "LAMBARE", "departamento": "CENTRAL", "distribuidor": "PETROBRAS PARAGUAY SRL", "operador": "SAN SILVERIO SRL", "marker_icon": "PTBR" }, "geometry": { "type": "Point", "coordinates": [ -57.60089748, -25.34102774 ] } },
{ "type": "Feature", "properties": { "direccion": "DE LOS CARRETEROS Y DR. MAZZEI", "tipo": "Estación de Servicio", "distrito": "LAMBARE", "departamento": "CENTRAL", "distribuidor": "PETROBRAS PARAGUAY SRL", "operador": "EMP. SAN ISIDRO", "marker_icon": "PTBR" }, "geometry": { "type": "Point", "coordinates": [ -57.61085263, -25.37736513 ] } },
{ "type": "Feature", "properties": { "direccion": "CARRETERA DE LOPEZ Y LOS COMUNEROS", "tipo": "Estación de Servicio", "distrito": "LAMBARE", "departamento": "CENTRAL", "distribuidor": "PETROBRAS PARAGUAY SRL", "operador": "EMP. TRANSP. 29 DE JUNIO SRL", "marker_icon": "PTBR" }, "geometry": { "type": "Point", "coordinates": [ -57.61841263, -25.37969426 ] } },
{ "type": "Feature", "properties": { "direccion": "DEFENSORES DEL CHACO Y YACARE VALIJA", "tipo": "Estación de Servicio", "distrito": "LAMBARE", "departamento": "CENTRAL", "distribuidor": "PETROBRAS PARAGUAY SRL", "operador": "IRU ATY SRL", "marker_icon": "PTBR" }, "geometry": { "type": "Point", "coordinates": [ -57.58842199, -25.3448621 ] } },
{ "type": "Feature", "properties": { "direccion": "CARRETERA LOPEZ Y SAN ISIDRO", "tipo": "Estación de Servicio", "distrito": "LAMBARE", "departamento": "CENTRAL", "distribuidor": "PETROBRAS PARAGUAY SRL", "operador": "TACUARA SACI", "marker_icon": "PTBR" }, "geometry": { "type": "Point", "coordinates": [ -57.62024033, -25.35536949 ] } },
{ "type": "Feature", "properties": { "direccion": "DEFENSORES DEL CHACO Y ANDRES GELLY", "tipo": "Estación de Servicio", "distrito": "LAMBARE", "departamento": "CENTRAL", "distribuidor": "PETROPAR", "operador": "BENITEZ Y ASOCIADOS SA", "marker_icon": "PTP" }, "geometry": { "type": "Point", "coordinates": [ -57.59994703, -25.36478538 ] } },
{ "type": "Feature", "properties": { "direccion": "SAN ISIDRO Y DE LA CONQUISTA", "tipo": "Estación de Servicio", "distrito": "LAMBARE", "departamento": "CENTRAL", "distribuidor": "PETROPAR", "operador": "BENITEZ Y ASOCIADOS SA", "marker_icon": "PTP" }, "geometry": { "type": "Point", "coordinates": [ -57.61052468, -25.35460847 ] } },
{ "type": "Feature", "properties": { "direccion": "RIO TEBICUARY Y CAP. PEDRO JUAN CABALLERO", "tipo": "Estación de Servicio", "distrito": "LAMBARE", "departamento": "CENTRAL", "distribuidor": "PETROPAR", "operador": "PETROSUR SA", "marker_icon": "PTP" }, "geometry": { "type": "Point", "coordinates": [ -57.59975785, -25.34166606 ] } },
{ "type": "Feature", "properties": { "direccion": "REPUBLICA ARGENTINA Y MARIA AUXILIADORA", "tipo": "Puesto de Consumo Propio", "distrito": "LAMBARE", "departamento": "CENTRAL", "distribuidor": "3MG SACIA", "operador": "LA SANTANIANA", "marker_icon": "TMG" }, "geometry": { "type": "Point", "coordinates": [ -57.60900143, -25.33424351 ] } },
{ "type": "Feature", "properties": { "direccion": "REPUBLICA ARGENTINA Y AMADOR DE MONTOYA", "tipo": "Puesto de Consumo Propio", "distrito": "LAMBARE", "departamento": "CENTRAL", "distribuidor": "3MG SACIA", "operador": "EMP. YBYTYRUZU SRL", "marker_icon": "TMG" }, "geometry": { "type": "Point", "coordinates": [ -57.59999502, -25.32943588 ] } },
{ "type": "Feature", "properties": { "direccion": "TTE. MAURICIO J. TROCHE C\/ FRANCISCO ACUA DE FIGUEROA", "tipo": "Puesto de Consumo Propio", "distrito": "LAMBARE", "departamento": "CENTRAL", "distribuidor": "3MG SACIA", "operador": "LA OVETENSE SA", "marker_icon": "TMG" }, "geometry": { "type": "Point", "coordinates": [ -57.59108732, -25.34480592 ] } },
{ "type": "Feature", "properties": { "direccion": "PATRICIO ESCOBAR E ITAPIRU", "tipo": "Estación de Servicio", "distrito": "LAMBARE", "departamento": "CENTRAL", "distribuidor": "3MG SACIA", "operador": "EMP. ARAVERA SA", "marker_icon": "TMG" }, "geometry": { "type": "Point", "coordinates": [ -57.61588456, -25.3500146 ] } },
{ "type": "Feature", "properties": { "direccion": "TTE. MAURICIO J. TROCHE Y FRANCISCO ACUA DE FIGUEROA", "tipo": "Estación de Servicio", "distrito": "LAMBARE", "departamento": "CENTRAL", "distribuidor": "3MG SACIA", "operador": "MIGUEL ANGEL GARCIA BENITEZ", "marker_icon": "TMG" }, "geometry": { "type": "Point", "coordinates": [ -57.59043709, -25.34555797 ] } },
{ "type": "Feature", "properties": { "direccion": "SAN ISIDRO Y ACOSTA U", "tipo": "Estación de Servicio", "distrito": "LAMBARE", "departamento": "CENTRAL", "distribuidor": "PETROSUR SA", "operador": "PETROSUR SA", "marker_icon": "PSR" }, "geometry": { "type": "Point", "coordinates": [ -57.61169624, -25.35415663 ] } },
{ "type": "Feature", "properties": { "direccion": "SAN ISIDRO Y LOMAS VALENTINAS", "tipo": "Puesto de Consumo Propio", "distrito": "LAMBARE", "departamento": "CENTRAL", "distribuidor": "BARCOS Y RODADOS SA", "operador": "EMP. TRANSP. 1 DE DICIEMBRE SRL", "marker_icon": "BR" }, "geometry": { "type": "Point", "coordinates": [ -57.61220949, -25.35488251 ] } },
{ "type": "Feature", "properties": { "direccion": "MEDICOS DEL CHACO Y HERNAN CORTES", "tipo": "Estación de Servicio", "distrito": "LAMBARE", "departamento": "CENTRAL", "distribuidor": "BARCOS Y RODADOS SA", "operador": "GENERAL SANTOS SA", "marker_icon": "BR" }, "geometry": { "type": "Point", "coordinates": [ -57.60875028, -25.33209968 ] } },
{ "type": "Feature", "properties": { "direccion": "CERRO LAMBARE C\/ SAGRADA FAMILIA", "tipo": "Estación de Servicio", "distrito": "LAMBARE", "departamento": "CENTRAL", "distribuidor": "BARCOS Y RODADOS SA", "operador": "CRISMA SRL", "marker_icon": "BR" }, "geometry": { "type": "Point", "coordinates": [ -57.62185561, -25.3531576 ] } },
{ "type": "Feature", "properties": { "direccion": "RIO BERMEJO Y BONIFACIO OVANDO", "tipo": "Estación de Servicio", "distrito": "LAMBARE", "departamento": "CENTRAL", "distribuidor": "BARCOS Y RODADOS SA", "operador": "GUIDO E. CABALLERO GONZALEZ", "marker_icon": "BR" }, "geometry": { "type": "Point", "coordinates": [ -57.60105997, -25.3492541 ] } },
{ "type": "Feature", "properties": { "direccion": "REPUBLICA ARGENTINA C\/ AMADOR DE MONTOYA", "tipo": "Estación de Servicio", "distrito": "LAMBARE", "departamento": "CENTRAL", "distribuidor": "BARCOS Y RODADOS SA", "operador": "GENERAL SANTOS SA", "marker_icon": "BR" }, "geometry": { "type": "Point", "coordinates": [ -57.59989744, -25.32933809 ] } },
{ "type": "Feature", "properties": { "direccion": "BRUNO GUGGIARI Y JUAN MARIA VIANNEY", "tipo": "Estación de Servicio", "distrito": "LAMBARE", "departamento": "CENTRAL", "distribuidor": "BARCOS Y RODADOS SA", "operador": "GENERAL SANTOS SA", "marker_icon": "BR" }, "geometry": { "type": "Point", "coordinates": [ -57.61345599, -25.31679521 ] } },
{ "type": "Feature", "properties": { "direccion": "BRUNO GUGGIARI E YSAPY", "tipo": "Estación de Servicio", "distrito": "LAMBARE", "departamento": "CENTRAL", "distribuidor": "BARCOS Y RODADOS SA", "operador": "GENERAL SANTOS SA", "marker_icon": "BR" }, "geometry": { "type": "Point", "coordinates": [ -57.61792589, -25.32797527 ] } },
{ "type": "Feature", "properties": { "direccion": "REPUBLICA ARGENTINA Y ALEJO GARCIA", "tipo": "Estación de Servicio", "distrito": "LAMBARE", "departamento": "CENTRAL", "distribuidor": "BARCOS Y RODADOS SA", "operador": "GALFA SA", "marker_icon": "BR" }, "geometry": { "type": "Point", "coordinates": [ -57.60544952, -25.33243804 ] } },
{ "type": "Feature", "properties": { "direccion": "BRUNO GUGGIARI Y LAS PALMAS", "tipo": "Estación de Servicio", "distrito": "LAMBARE", "departamento": "CENTRAL", "distribuidor": "COPETROL SA", "operador": "GESTION DE SERVICIOS SA", "marker_icon": "CPT" }, "geometry": { "type": "Point", "coordinates": [ -57.62047053, -25.33262893 ] } },
{ "type": "Feature", "properties": { "direccion": "CACIQUE LAMBARE Y SAN VICENTE", "tipo": "Estación de Servicio", "distrito": "LAMBARE", "departamento": "CENTRAL", "distribuidor": "COPETROL SA", "operador": "EMPRENDIMIENTOS SANTA LUCIA SA", "marker_icon": "CPT" }, "geometry": { "type": "Point", "coordinates": [ -57.62122936, -25.34281448 ] } },
{ "type": "Feature", "properties": { "direccion": "REPUBLICA ARGENTINA Y HERNAN CORTES", "tipo": "Estación de Servicio", "distrito": "LAMBARE", "departamento": "CENTRAL", "distribuidor": "COPETROL SA", "operador": "ESTELA CHAVEZ DE ADORNO", "marker_icon": "CPT" }, "geometry": { "type": "Point", "coordinates": [ -57.60756081, -25.33374264 ] } },
{ "type": "Feature", "properties": { "direccion": "DEFENSORES DEL CHACO Y JUAN B. RIVAROLA", "tipo": "Estación de Servicio", "distrito": "LAMBARE", "departamento": "CENTRAL", "distribuidor": "COPETROL SA", "operador": "GESTION DE SERVICIOS SA", "marker_icon": "CPT" }, "geometry": { "type": "Point", "coordinates": [ -57.58791821, -25.34400488 ] } },
{ "type": "Feature", "properties": { "direccion": "MEDICOS DEL CHACO Y DOMINGO MARTINEZ DE IRALA", "tipo": "Estación de Servicio", "distrito": "LAMBARE", "departamento": "CENTRAL", "distribuidor": "COPETROL SA", "operador": "GARVEN SRL", "marker_icon": "CPT" }, "geometry": { "type": "Point", "coordinates": [ -57.60353611, -25.32727566 ] } },
{ "type": "Feature", "properties": { "direccion": "CERRO LAMBARE Y 1 DE MARZO", "tipo": "Estación de Servicio", "distrito": "LAMBARE", "departamento": "CENTRAL", "distribuidor": "COPETROL SA", "operador": "MARIA ESTELA BENITEZ ARTETA", "marker_icon": "CPT" }, "geometry": { "type": "Point", "coordinates": [ -57.6255393, -25.35215078 ] } },
{ "type": "Feature", "properties": { "direccion": "REPUBLICA ARGENTINA Y GUARANIES", "tipo": "Estación de Servicio", "distrito": "LAMBARE", "departamento": "CENTRAL", "distribuidor": "COPETROL SA", "operador": "PETROPLUS SRL", "marker_icon": "CPT" }, "geometry": { "type": "Point", "coordinates": [ -57.61554174, -25.3354127 ] } },
{ "type": "Feature", "properties": { "direccion": "BRUNO GUGGIARI Y CAMALOTE", "tipo": "Estación de Servicio", "distrito": "LAMBARE", "departamento": "CENTRAL", "distribuidor": "COPETROL SA", "operador": "SAN BENICIO SRL", "marker_icon": "CPT" }, "geometry": { "type": "Point", "coordinates": [ -57.61408273, -25.31942366 ] } },
{ "type": "Feature", "properties": { "direccion": "CACIQUE LAMBARE C\/ 15 DE AGOSTO", "tipo": "Estación de Servicio", "distrito": "LAMBARE", "departamento": "CENTRAL", "distribuidor": "COPETROL SA", "operador": "GENERAL SANTOS SA", "marker_icon": "CPT" }, "geometry": { "type": "Point", "coordinates": [ -57.63167134, -25.34257468 ] } },
{ "type": "Feature", "properties": { "direccion": "CARRETERA DE LOPEZ Y MANUEL GONDRA", "tipo": "Estación de Servicio", "distrito": "LAMBARE", "departamento": "CENTRAL", "distribuidor": "COPETROL SA", "operador": "TAPE GUAZU SA", "marker_icon": "CPT" }, "geometry": { "type": "Point", "coordinates": [ -57.62086828, -25.36035543 ] } },
{ "type": "Feature", "properties": { "direccion": "EMILIO HASSLER Y 16 DE MAYO", "tipo": "Estación de Servicio", "distrito": "LAMBARE", "departamento": "CENTRAL", "distribuidor": "PETROBRAS PARAGUAY SRL", "operador": "CACIQUE", "marker_icon": "PTBR" }, "geometry": { "type": "Point", "coordinates": [ -57.61261947, -25.36529521 ] } },
{ "type": "Feature", "properties": { "direccion": "CACIQUE LAMBARE Y ARQ. LUIS M. ARGAÑA", "tipo": "Estación de Servicio", "distrito": "LAMBARE", "departamento": "CENTRAL", "distribuidor": "PETROBRAS PARAGUAY SRL", "operador": "SAN SILVERIO II SRL", "marker_icon": "PTBR" }, "geometry": { "type": "Point", "coordinates": [ -57.62490915, -25.34225379 ] } },
{ "type": "Feature", "properties": { "direccion": "CACIQUE LAMBARE Y PANCHITO LOPEZ", "tipo": "Estación de Servicio", "distrito": "LAMBARE", "departamento": "CENTRAL", "distribuidor": "PUMA ENERGY PARAGUAY SA", "operador": "ESCOBAR GROUP SA", "marker_icon": "PUM" }, "geometry": { "type": "Point", "coordinates": [ -57.61786758, -25.34375203 ] } },
{ "type": "Feature", "properties": { "direccion": "CACIQUE LAMBARE Y MONSEÑOR BOGARIN", "tipo": "Estación de Servicio", "distrito": "LAMBARE", "departamento": "CENTRAL", "distribuidor": "PUMA ENERGY PARAGUAY SA", "operador": "RODAR SRL", "marker_icon": "PUM" }, "geometry": { "type": "Point", "coordinates": [ -57.59658503, -25.34030314 ] } },
{ "type": "Feature", "properties": { "direccion": "CACIQUE LAMBARE Y RIO APA", "tipo": "Estación de Servicio", "distrito": "LAMBARE", "departamento": "CENTRAL", "distribuidor": "BARCOS Y RODADOS SA", "operador": "ESTACION BAHIA SA", "marker_icon": "BR" }, "geometry": { "type": "Point", "coordinates": [ -57.60584141, -25.3427278 ] } },
{ "type": "Feature", "properties": { "direccion": "SAN ISIDRO Y BONIFACIO OVANDO", "tipo": "Estación de Servicio", "distrito": "LAMBARE", "departamento": "CENTRAL", "distribuidor": "PUMA ENERGY PARAGUAY SA", "operador": "ROSAMIS SA", "marker_icon": "PUM" }, "geometry": { "type": "Point", "coordinates": [ -57.5997064, -25.35649792 ] } },
{ "type": "Feature", "properties": { "direccion": "VENCEDORES DEL CHACO Y ALEJANDRO RAVIZZA, LOTES 1 Y 2, MANZANA A, FINCA Nº 15642, CTAS. CTES. CTRALES. Nº 13-1778-04\/05", "tipo": "Estación de Servicio", "distrito": "LAMBARE", "departamento": "CENTRAL", "distribuidor": "COPEG SA", "operador": "21 DE SETIEMBRE S.R.L.", "marker_icon": "CPG" }, "geometry": { "type": "Point", "coordinates": [ -57.60011388, -25.33918785 ] } },
{ "type": "Feature", "properties": { "direccion": "CACIQUE LAMBARE Y ALONSO CABRERA", "tipo": "Estación de Servicio", "distrito": "LAMBARE", "departamento": "CENTRAL", "distribuidor": "GAS CORONA SAECA", "operador": "ROSA AGUSTIN GONZALEZ DANS", "marker_icon": "COR" }, "geometry": { "type": "Point", "coordinates": [ -57.59053031, -25.33865246 ] } },
{ "type": "Feature", "properties": { "direccion": "DEFENSORES DEL CHACO C\/ DE LAS LLANAS", "tipo": "Estación de Servicio", "distrito": "LAMBARE", "departamento": "CENTRAL", "distribuidor": "PETROSUR SA", "operador": "PETROSUR SA", "marker_icon": "PSR" }, "geometry": { "type": "Point", "coordinates": [ -57.60446224, -25.37143817 ] } },
{ "type": "Feature", "properties": { "direccion": "REPUBLICA ARGENTINA Y AVAMBAE", "tipo": "Estación de Servicio", "distrito": "LAMBARE", "departamento": "CENTRAL", "distribuidor": "PETROSUR SA", "operador": "PETROSUR SA", "marker_icon": "PSR" }, "geometry": { "type": "Point", "coordinates": [ -57.61905523, -25.33417294 ] } },
{ "type": "Feature", "properties": { "direccion": "TOBATI Y JUAN DEL CASTILLO", "tipo": "Estación de Servicio", "distrito": "LAMBARE", "departamento": "CENTRAL", "distribuidor": "PETROSUR SA", "operador": "PETROSUR SA", "marker_icon": "PSR" }, "geometry": { "type": "Point", "coordinates": [ -57.61517187, -25.36476532 ] } },
{ "type": "Feature", "properties": { "direccion": "DEFENSORES DEL CHACO Y JOSE A. FLORES", "tipo": "Estación de Servicio", "distrito": "LAMBARE", "departamento": "CENTRAL", "distribuidor": "PETROSUR SA", "operador": "BRUNO ESTEBAN CHIRIANI ANDRADA", "marker_icon": "PSR" }, "geometry": { "type": "Point", "coordinates": [ -57.59864307, -25.36229252 ] } },
{ "type": "Feature", "properties": { "direccion": "GRAL. GARAY Y WESCESLAO LOPEZ", "tipo": "Estación de Servicio", "distrito": "MARIANO ROQUE ALONSO", "departamento": "CENTRAL", "distribuidor": "TAPIRACUAI (PETROCHACO SRL)", "operador": "TAPIRACUAI SA", "marker_icon": "PCH" }, "geometry": { "type": "Point", "coordinates": [ -57.54238693, -25.22323125 ] } },
{ "type": "Feature", "properties": { "direccion": "WASHINGTON Y SAN BARTOLOME", "tipo": "Puesto de Consumo Propio", "distrito": "MARIANO ROQUE ALONSO", "departamento": "CENTRAL", "distribuidor": "HIDROCARBUROS DEL NORTE", "operador": "PRINCESA DEL NORTE SA", "marker_icon": "HDN" }, "geometry": { "type": "Point", "coordinates": [ -57.52702894, -25.19906511 ] } },
{ "type": "Feature", "properties": { "direccion": "RUTA TRANSCHACO Y JOSE MEDINA", "tipo": "Estación de Servicio", "distrito": "MARIANO ROQUE ALONSO", "departamento": "CENTRAL", "distribuidor": "PETROBRAS PARAGUAY SRL", "operador": "VIERNTOS DEL CHACO SA", "marker_icon": "PTBR" }, "geometry": { "type": "Point", "coordinates": [ -57.54077194, -25.18892639 ] } },
{ "type": "Feature", "properties": { "direccion": "RUTA TRANSCHACO Y FIDEL MAIZ", "tipo": "Estación de Servicio", "distrito": "MARIANO ROQUE ALONSO", "departamento": "CENTRAL", "distribuidor": "BARCOS Y RODADOS SA", "operador": "ECOBAR SRL", "marker_icon": "BR" }, "geometry": { "type": "Point", "coordinates": [ -57.53762164, -25.19143606 ] } },
{ "type": "Feature", "properties": { "direccion": "RUTA TRANSCHACO Y MEDALLA MILAGROSA", "tipo": "Estación de Servicio", "distrito": "MARIANO ROQUE ALONSO", "departamento": "CENTRAL", "distribuidor": "COPETROL SA", "operador": "2 SG SRL", "marker_icon": "CPT" }, "geometry": { "type": "Point", "coordinates": [ -57.52583478, -25.20140695 ] } },
{ "type": "Feature", "properties": { "direccion": "RUTA TRANSCHACO Y PICUIBA", "tipo": "Estación de Servicio", "distrito": "MARIANO ROQUE ALONSO", "departamento": "CENTRAL", "distribuidor": "PETROSUR SA", "operador": "ENERGIA 365 S.R.L.", "marker_icon": "PSR" }, "geometry": { "type": "Point", "coordinates": [ -57.53081273, -25.21681369 ] } },
{ "type": "Feature", "properties": { "direccion": "RUTA TRANSCHACO Y CAPITAN HERMOSILLA", "tipo": "Estación de Servicio", "distrito": "MARIANO ROQUE ALONSO", "departamento": "CENTRAL", "distribuidor": "BARCOS Y RODADOS SA", "operador": "ESTACION BAHIA SA", "marker_icon": "BR" }, "geometry": { "type": "Point", "coordinates": [ -57.53061194, -25.21755316 ] } },
{ "type": "Feature", "properties": { "direccion": "RUTA TRANSCHACO", "tipo": "Estación de Servicio", "distrito": "MARIANO ROQUE ALONSO", "departamento": "CENTRAL", "distribuidor": "COPETROL SA", "operador": "GESTION DE SERVICIOS SA", "marker_icon": "CPT" }, "geometry": { "type": "Point", "coordinates": [ -57.53354305, -25.22397007 ] } },
{ "type": "Feature", "properties": { "direccion": "RUTA TRANSCHACO Y JUAN DE AYOLAS", "tipo": "Estación de Servicio", "distrito": "MARIANO ROQUE ALONSO", "departamento": "CENTRAL", "distribuidor": "BARCOS Y RODADOS SA", "operador": "ECOBAR SRL", "marker_icon": "BR" }, "geometry": { "type": "Point", "coordinates": [ -57.5328997, -25.22398667 ] } },
{ "type": "Feature", "properties": { "direccion": "BERNARDINO CABALLERO Y RUTA LUQUE MARIANO", "tipo": "Estación de Servicio", "distrito": "MARIANO ROQUE ALONSO", "departamento": "CENTRAL", "distribuidor": "PETROBRAS PARAGUAY SRL", "operador": "LUA SRL", "marker_icon": "PTBR" }, "geometry": { "type": "Point", "coordinates": [ -57.51126658, -25.21090655 ] } },
{ "type": "Feature", "properties": { "direccion": "DR. JOSE MONTERO Y RAMON DE LAS LLANAS", "tipo": "Estación de Servicio", "distrito": "ASUNCION", "departamento": "ASUNCION", "distribuidor": "PUMA ENERGY PARAGUAY SA", "operador": "EMPRESA SAN JOSE SA", "marker_icon": "PUM" }, "geometry": { "type": "Point", "coordinates": [ -57.66167873, -25.28113861 ] } },
{ "type": "Feature", "properties": { "direccion": "DR. JOSE P. MONTERO Y DR. EMILIANO PAIVA", "tipo": "Estación de Servicio", "distrito": "ASUNCION", "departamento": "ASUNCION", "distribuidor": "COPETROL SA", "operador": "COPETROL SA", "marker_icon": "CPT" }, "geometry": { "type": "Point", "coordinates": [ -57.65488433, -25.27990743 ] } },
{ "type": "Feature", "properties": { "direccion": "DR. JOSE MONTERO Y PATRICIOS", "tipo": "Estación de Servicio", "distrito": "ASUNCION", "departamento": "ASUNCION", "distribuidor": "COPEG SA", "operador": "YUGO SRL", "marker_icon": "CPG" }, "geometry": { "type": "Point", "coordinates": [ -57.6482418, -25.27896576 ] } },
{ "type": "Feature", "properties": { "direccion": "ESTRELLA Y HERNANDARIAS", "tipo": "Estación de Servicio", "distrito": "ASUNCION", "departamento": "ASUNCION", "distribuidor": "GAS CORONA SAECA", "operador": "PEDRO DANIEL PORTA LOPEZ", "marker_icon": "COR" }, "geometry": { "type": "Point", "coordinates": [ -57.64312627, -25.27834681 ] } },
{ "type": "Feature", "properties": { "direccion": "GRAL. JOSE E. DIAZ Y CRISTOBAL COLON", "tipo": "Estación de Servicio", "distrito": "ASUNCION", "departamento": "ASUNCION", "distribuidor": "COPETROL SA", "operador": "GESTION DE SERVICIOS SA", "marker_icon": "CPT" }, "geometry": { "type": "Point", "coordinates": [ -57.64306729, -25.2802878 ] } },
{ "type": "Feature", "properties": { "direccion": "PTE. FRANCO Y JUAN DE AYOLAS", "tipo": "Estación de Servicio", "distrito": "ASUNCION", "departamento": "ASUNCION", "distribuidor": "BARCOS Y RODADOS SA", "operador": "ESTACION BAHIA SA", "marker_icon": "BR" }, "geometry": { "type": "Point", "coordinates": [ -57.63881782, -25.27902982 ] } },
{ "type": "Feature", "properties": { "direccion": "GRAL. JOSE E. DIAZ Y CHILE", "tipo": "Estación de Servicio", "distrito": "ASUNCION", "departamento": "ASUNCION", "distribuidor": "AXION ENERGY PARAGUAY SRL", "operador": "AXION ENERGY PARAGUAY SRL", "marker_icon": "AXN" }, "geometry": { "type": "Point", "coordinates": [ -57.63641468, -25.28358775 ] } },
{ "type": "Feature", "properties": { "direccion": "MCAL. LOPEZ Y SALVADOR GUANES", "tipo": "Estación de Servicio", "distrito": "ASUNCION", "departamento": "ASUNCION", "distribuidor": "COPETROL SA", "operador": "GESTION DE SERVICIOS SA", "marker_icon": "CPT" }, "geometry": { "type": "Point", "coordinates": [ -57.63015658, -25.28289842 ] } },
{ "type": "Feature", "properties": { "direccion": "25 DE MAYO Y TACUARY", "tipo": "Estación de Servicio", "distrito": "ASUNCION", "departamento": "ASUNCION", "distribuidor": "COPETROL SA", "operador": "GESTION DE SERVICIOS SA", "marker_icon": "CPT" }, "geometry": { "type": "Point", "coordinates": [ -57.62890037, -25.28609901 ] } },
{ "type": "Feature", "properties": { "direccion": "JOSE DE ANTEQUERA Y CASTRO Y FELIX DE AZARA", "tipo": "Estación de Servicio", "distrito": "ASUNCION", "departamento": "ASUNCION", "distribuidor": "PETROSUR SA", "operador": "ENERGIA 365 S.R.L.", "marker_icon": "PSR" }, "geometry": { "type": "Point", "coordinates": [ -57.63029284, -25.28708882 ] } },
{ "type": "Feature", "properties": { "direccion": "CARLOS A. LOPEZ Y TREJO DE SANABRIA", "tipo": "Estación de Servicio", "distrito": "ASUNCION", "departamento": "ASUNCION", "distribuidor": "PETROBRAS PARAGUAY SRL", "operador": "WALTER BASTOS SALMENA", "marker_icon": "PTBR" }, "geometry": { "type": "Point", "coordinates": [ -57.66510016, -25.29031277 ] } },
{ "type": "Feature", "properties": { "direccion": "CARLOS A. LOPEZY TREJO DE SANABRIA", "tipo": "Estación de Servicio", "distrito": "ASUNCION", "departamento": "ASUNCION", "distribuidor": "COPETROL SA", "operador": "TRES CORRALES SRL", "marker_icon": "CPT" }, "geometry": { "type": "Point", "coordinates": [ -57.66495408, -25.29079285 ] } },
{ "type": "Feature", "properties": { "direccion": "CAP. MANUEL ARANDA Y CAP. JOSE BOZZANO", "tipo": "Estación de Servicio", "distrito": "ASUNCION", "departamento": "ASUNCION", "distribuidor": "PETROMAX SA", "operador": "PETROQUIM SA", "marker_icon": "PMX" }, "geometry": { "type": "Point", "coordinates": [ -57.66797191, -25.2940356 ] } },
{ "type": "Feature", "properties": { "direccion": "ORIHUELA Y CAP. JOSE BOZZANO", "tipo": "Estación de Servicio", "distrito": "ASUNCION", "departamento": "ASUNCION", "distribuidor": "BARCOS Y RODADOS SA", "operador": "EMP. TRANSP. GUARANI SRL", "marker_icon": "BR" }, "geometry": { "type": "Point", "coordinates": [ -57.66784482, -25.29455542 ] } },
{ "type": "Feature", "properties": { "direccion": "CALA A Y DOMINGO MARTINEZ DE IRALA", "tipo": "Estación de Servicio", "distrito": "ASUNCION", "departamento": "ASUNCION", "distribuidor": "BARCOS Y RODADOS SA", "operador": "LITORAL SRL", "marker_icon": "BR" }, "geometry": { "type": "Point", "coordinates": [ -57.65970997, -25.29446818 ] } },
{ "type": "Feature", "properties": { "direccion": "ALF. VICTORIANO SILVA Y TTE. VICTOR MIRANDA", "tipo": "Estación de Servicio", "distrito": "ASUNCION", "departamento": "ASUNCION", "distribuidor": "BARCOS Y RODADOS SA", "operador": "COMBU BAR COMPANY SRL", "marker_icon": "BR" }, "geometry": { "type": "Point", "coordinates": [ -57.65128158, -25.28387797 ] } },
{ "type": "Feature", "properties": { "direccion": "ALF. SILVA Y CONRADO RIOS GALLARDO", "tipo": "Estación de Servicio", "distrito": "ASUNCION", "departamento": "ASUNCION", "distribuidor": "BARCOS Y RODADOS SA", "operador": "COMBU BAR COMPANY SRL", "marker_icon": "BR" }, "geometry": { "type": "Point", "coordinates": [ -57.65126324, -25.28421112 ] } },
{ "type": "Feature", "properties": { "direccion": "CRISTOBAL COLON Y PORTUGAL", "tipo": "Estación de Servicio", "distrito": "ASUNCION", "departamento": "ASUNCION", "distribuidor": "PETROBRAS PARAGUAY SRL", "operador": "MARPAL SA", "marker_icon": "PTBR" }, "geometry": { "type": "Point", "coordinates": [ -57.65347346, -25.29510672 ] } },
{ "type": "Feature", "properties": { "direccion": "CRISTOBAL COLON Y MILANO", "tipo": "Estación de Servicio", "distrito": "ASUNCION", "departamento": "ASUNCION", "distribuidor": "PUMA ENERGY PARAGUAY SA", "operador": "LAVA VIC 2 S.A", "marker_icon": "PUM" }, "geometry": { "type": "Point", "coordinates": [ -57.64788766, -25.28801266 ] } },
{ "type": "Feature", "properties": { "direccion": "PIRIBEBUY Y MONTEVIDEO, FINCA Nº 1070 Y 7388, CTAS. CTES. CTRALES. Nº 10-463-01\/02", "tipo": "Estación de Servicio", "distrito": "ASUNCION", "departamento": "ASUNCION", "distribuidor": "PETROBRAS PARAGUAY SRL", "operador": "ZALARA SA", "marker_icon": "PTBR" }, "geometry": { "type": "Point", "coordinates": [ -57.64364595, -25.28391799 ] } },
{ "type": "Feature", "properties": { "direccion": "PIRIBEBUY Y ALBERDI", "tipo": "Estación de Servicio", "distrito": "ASUNCION", "departamento": "ASUNCION", "distribuidor": "PETROPAR", "operador": "ESTACION BAHIA SA", "marker_icon": "PTP" }, "geometry": { "type": "Point", "coordinates": [ -57.63892997, -25.28619923 ] } },
{ "type": "Feature", "properties": { "direccion": "PIRIBEBUY Y NTRA. SRA. DE LA ASUNCION", "tipo": "Estación de Servicio", "distrito": "ASUNCION", "departamento": "ASUNCION", "distribuidor": "BARCOS Y RODADOS SA", "operador": "ESTACION BAHIA SA", "marker_icon": "BR" }, "geometry": { "type": "Point", "coordinates": [ -57.63749869, -25.28706096 ] } },
{ "type": "Feature", "properties": { "direccion": "ROMA Y JUAN DE AYOLAS", "tipo": "Estación de Servicio", "distrito": "ASUNCION", "departamento": "ASUNCION", "distribuidor": "PETROBRAS PARAGUAY SRL", "operador": "DISTRISUR SA", "marker_icon": "PTBR" }, "geometry": { "type": "Point", "coordinates": [ -57.64709971, -25.29042021 ] } },
{ "type": "Feature", "properties": { "direccion": "MILANO Y ALBERDI", "tipo": "Estación de Servicio", "distrito": "ASUNCION", "departamento": "ASUNCION", "distribuidor": "PETROSUR SA", "operador": "ENERGIA 365 S.R.L.", "marker_icon": "PSR" }, "geometry": { "type": "Point", "coordinates": [ -57.64272873, -25.29108697 ] } },
{ "type": "Feature", "properties": { "direccion": "NTRA. SRA. DE LA ASUNCION Y ATENAS", "tipo": "Estación de Servicio", "distrito": "ASUNCION", "departamento": "ASUNCION", "distribuidor": "PETROBRAS PARAGUAY SRL", "operador": "SANTA FELICIA SRL", "marker_icon": "PTBR" }, "geometry": { "type": "Point", "coordinates": [ -57.64451693, -25.29745618 ] } },
{ "type": "Feature", "properties": { "direccion": "FRANCISCO ACUA DE FIGUEROA Y FULGENCIO YEGROS", "tipo": "Estación de Servicio", "distrito": "ASUNCION", "departamento": "ASUNCION", "distribuidor": "PETROMAX SA", "operador": "CARLOS GONZALEZ GOMEZ", "marker_icon": "PMX" }, "geometry": { "type": "Point", "coordinates": [ -57.64105656, -25.29536933 ] } },
{ "type": "Feature", "properties": { "direccion": "GASPAR RODRIGUEZ DE FRANCIA Y FULGENCIO YEGROS", "tipo": "Estación de Servicio", "distrito": "ASUNCION", "departamento": "ASUNCION", "distribuidor": "COPETROL SA", "operador": "EL SHAH SA", "marker_icon": "CPT" }, "geometry": { "type": "Point", "coordinates": [ -57.6385525, -25.2910313 ] } },
{ "type": "Feature", "properties": { "direccion": "JOSE G. RODRIGUEZ DE FRANCIA Y JOSE DE ANTEQUERA Y CASTRO", "tipo": "Estación de Servicio", "distrito": "ASUNCION", "departamento": "ASUNCION", "distribuidor": "PETROBRAS PARAGUAY SRL", "operador": "NGB SRL", "marker_icon": "PTBR" }, "geometry": { "type": "Point", "coordinates": [ -57.63508697, -25.29355585 ] } },
{ "type": "Feature", "properties": { "direccion": "AVAY Y TACUARY", "tipo": "Estación de Servicio", "distrito": "ASUNCION", "departamento": "ASUNCION", "distribuidor": "PUMA ENERGY PARAGUAY SA", "operador": "PUMA ENERGY PARAGUAY SA", "marker_icon": "PUM" }, "geometry": { "type": "Point", "coordinates": [ -57.63527654, -25.29546998 ] } },
{ "type": "Feature", "properties": { "direccion": "ESTADOS UNIDOS Y FRANCISCO ACUÑA DE FIGUEROA", "tipo": "Estación de Servicio", "distrito": "ASUNCION", "departamento": "ASUNCION", "distribuidor": "PETROPAR", "operador": "OSCAR SACCOMANI GHEZZI", "marker_icon": "PTP" }, "geometry": { "type": "Point", "coordinates": [ -57.63393167, -25.29887103 ] } },
{ "type": "Feature", "properties": { "direccion": "NANAWA Y JOSE F. BOGADO", "tipo": "Estación de Servicio", "distrito": "ASUNCION", "departamento": "ASUNCION", "distribuidor": "BARCOS Y RODADOS SA", "operador": "FELIX BOGADO SRL", "marker_icon": "BR" }, "geometry": { "type": "Point", "coordinates": [ -57.63272246, -25.30218944 ] } },
{ "type": "Feature", "properties": { "direccion": "CNEL. JOSE F. BOGADO Y COSTA RICA", "tipo": "Estación de Servicio", "distrito": "ASUNCION", "departamento": "ASUNCION", "distribuidor": "COPETROL SA", "operador": "GESTION DE SERVICIOS SA", "marker_icon": "CPT" }, "geometry": { "type": "Point", "coordinates": [ -57.63192709, -25.29998058 ] } },
{ "type": "Feature", "properties": { "direccion": "ITA YBATE Y GRAL.PAULINO ANTOLA", "tipo": "Estación de Servicio", "distrito": "ASUNCION", "departamento": "ASUNCION", "distribuidor": "AXION ENERGY PARAGUAY SRL", "operador": "SERV. GRAL. TTE. ROJAS SILVA", "marker_icon": "AXN" }, "geometry": { "type": "Point", "coordinates": [ -57.63920184, -25.30955118 ] } },
{ "type": "Feature", "properties": { "direccion": "TATAYIBA Y CNEL. JOSE F. BOGADO", "tipo": "Estación de Servicio", "distrito": "ASUNCION", "departamento": "ASUNCION", "distribuidor": "PETROBRAS PARAGUAY SRL", "operador": "SAN SILVERIO IV SRL", "marker_icon": "PTBR" }, "geometry": { "type": "Point", "coordinates": [ -57.63199454, -25.3089068 ] } },
{ "type": "Feature", "properties": { "direccion": "CNEL. JOSE F. BOGADO Y TTE. 1 BLAS M. GARAY", "tipo": "Estación de Servicio", "distrito": "ASUNCION", "departamento": "ASUNCION", "distribuidor": "PUMA ENERGY PARAGUAY SA", "operador": "ASOC. PROF. TAXISTAS DE ASUNCION", "marker_icon": "PUM" }, "geometry": { "type": "Point", "coordinates": [ -57.63148855, -25.30858435 ] } },
{ "type": "Feature", "properties": { "direccion": "TTE. JOSE M. FARIA Y PARAGUARI", "tipo": "Estación de Servicio", "distrito": "ASUNCION", "departamento": "ASUNCION", "distribuidor": "PETROSUR SA", "operador": "ENERGIA 365 S.R.L.", "marker_icon": "PSR" }, "geometry": { "type": "Point", "coordinates": [ -57.6341421, -25.29038186 ] } },
{ "type": "Feature", "properties": { "direccion": "CERRO CORA Y BRASIL", "tipo": "Estación de Servicio", "distrito": "ASUNCION", "departamento": "ASUNCION", "distribuidor": "PETROBRAS PARAGUAY SRL", "operador": "ZALARA SA", "marker_icon": "PTBR" }, "geometry": { "type": "Point", "coordinates": [ -57.62526313, -25.28910894 ] } },
{ "type": "Feature", "properties": { "direccion": "FELIZ DE AZARA Y BRASIL", "tipo": "Estación de Servicio", "distrito": "ASUNCION", "departamento": "ASUNCION", "distribuidor": "AXION ENERGY PARAGUAY SRL", "operador": "ESSO STANDARD PARAGUAY SA", "marker_icon": "AXN" }, "geometry": { "type": "Point", "coordinates": [ -57.62538431, -25.29028027 ] } },
{ "type": "Feature", "properties": { "direccion": "LUIS A. DE HERRERA Y CURUPAYTY", "tipo": "Estación de Servicio", "distrito": "ASUNCION", "departamento": "ASUNCION", "distribuidor": "PETROBRAS PARAGUAY SRL", "operador": "ATILO S.A.", "marker_icon": "PTBR" }, "geometry": { "type": "Point", "coordinates": [ -57.6241906, -25.29203299 ] } },
{ "type": "Feature", "properties": { "direccion": "CERRO CORA Y PAI PEREZ", "tipo": "Estación de Servicio", "distrito": "ASUNCION", "departamento": "ASUNCION", "distribuidor": "GAS CORONA SAECA", "operador": "GAS CORONA SAECA", "marker_icon": "COR" }, "geometry": { "type": "Point", "coordinates": [ -57.62231968, -25.29109744 ] } },
{ "type": "Feature", "properties": { "direccion": "BRASIL Y RCA. DE COLOMBIA", "tipo": "Estación de Servicio", "distrito": "ASUNCION", "departamento": "ASUNCION", "distribuidor": "BARCOS Y RODADOS SA", "operador": "COMBU BAR COMPANY SRL", "marker_icon": "BR" }, "geometry": { "type": "Point", "coordinates": [ -57.62959537, -25.29504085 ] } },
{ "type": "Feature", "properties": { "direccion": "LOMAS VALENTINAS Y PERU", "tipo": "Estación de Servicio", "distrito": "ASUNCION", "departamento": "ASUNCION", "distribuidor": "BARCOS Y RODADOS SA", "operador": "COMBU BAR COMPANY SRL", "marker_icon": "BR" }, "geometry": { "type": "Point", "coordinates": [ -57.628044, -25.30064764 ] } },
{ "type": "Feature", "properties": { "direccion": "TEPDORO S. MONGELOS Y RCA. FRANCESA", "tipo": "Estación de Servicio", "distrito": "ASUNCION", "departamento": "ASUNCION", "distribuidor": "BARCOS Y RODADOS SA", "operador": "ESTACION BAHIA SA", "marker_icon": "BR" }, "geometry": { "type": "Point", "coordinates": [ -57.62160795, -25.29631227 ] } },
{ "type": "Feature", "properties": { "direccion": "GASPAR RODRIGUEZ DE FRANCIA Y PROCERES DE MAYO", "tipo": "Estación de Servicio", "distrito": "ASUNCION", "departamento": "ASUNCION", "distribuidor": "PETROBRAS PARAGUAY SRL", "operador": "F.M. GONZALEZ Y CIA SRL", "marker_icon": "PTBR" }, "geometry": { "type": "Point", "coordinates": [ -57.62105678, -25.30110235 ] } },
{ "type": "Feature", "properties": { "direccion": "PTE. JUAN D. PERON Y DR. LUIS MIGONE BATTILANA", "tipo": "Estación de Servicio", "distrito": "ASUNCION", "departamento": "ASUNCION", "distribuidor": "PETROMAX SA", "operador": "TRANSPAR SRL", "marker_icon": "PMX" }, "geometry": { "type": "Point", "coordinates": [ -57.64470066, -25.35919087 ] } },
{ "type": "Feature", "properties": { "direccion": "PTE. JUAN D. PERON Y CALLE SIN NOMBRE", "tipo": "Estación de Servicio", "distrito": "ASUNCION", "departamento": "ASUNCION", "distribuidor": "PETROPAR", "operador": "RADIX SRL", "marker_icon": "PTP" }, "geometry": { "type": "Point", "coordinates": [ -57.64222176, -25.35388428 ] } },
{ "type": "Feature", "properties": { "direccion": "CNEL. ABRAHAM SHWEISER Y GRAL DOMINGO PERON", "tipo": "Estación de Servicio", "distrito": "ASUNCION", "departamento": "ASUNCION", "distribuidor": "BARCOS Y RODADOS SA", "operador": "COMBU BAR COMPANY SRL", "marker_icon": "BR" }, "geometry": { "type": "Point", "coordinates": [ -57.63713784, -25.34257342 ] } },
{ "type": "Feature", "properties": { "direccion": "JOSE F. BOGADO Y GRAL. MAXIMO SANTOS", "tipo": "Estación de Servicio", "distrito": "ASUNCION", "departamento": "ASUNCION", "distribuidor": "BARCOS Y RODADOS SA", "operador": "COMBU BAR COMPANY SRL", "marker_icon": "BR" }, "geometry": { "type": "Point", "coordinates": [ -57.62680146, -25.32734255 ] } },
{ "type": "Feature", "properties": { "direccion": "CNEL. JOSE F. BOGADO Y CAMPO VIA", "tipo": "Estación de Servicio", "distrito": "ASUNCION", "departamento": "ASUNCION", "distribuidor": "PETROBRAS PARAGUAY SRL", "operador": "TALLIN SRL", "marker_icon": "PTBR" }, "geometry": { "type": "Point", "coordinates": [ -57.62975699, -25.31589666 ] } },
{ "type": "Feature", "properties": { "direccion": "ESPAÑA Y SAN JOSE", "tipo": "Estación de Servicio", "distrito": "ASUNCION", "departamento": "ASUNCION", "distribuidor": "COPETROL SA", "operador": "MARIA L. PRIETO DE FERNANDEZ", "marker_icon": "CPT" }, "geometry": { "type": "Point", "coordinates": [ -57.6193257, -25.28545864 ] } },
{ "type": "Feature", "properties": { "direccion": "DR. FERNANDO DE LA MORA Y MASKOY", "tipo": "Estación de Servicio", "distrito": "ASUNCION", "departamento": "ASUNCION", "distribuidor": "PUMA ENERGY PARAGUAY SA", "operador": "DISTRIFLUVIAL SA", "marker_icon": "PUM" }, "geometry": { "type": "Point", "coordinates": [ -57.58514129, -25.33874089 ] } },
{ "type": "Feature", "properties": { "direccion": "CACIQUE LAMBARE Y JORGE PAREDES CABELLO", "tipo": "Estación de Servicio", "distrito": "ASUNCION", "departamento": "ASUNCION", "distribuidor": "COPETROL SA", "operador": "EMPRESA YCUA SATI SRL", "marker_icon": "CPT" }, "geometry": { "type": "Point", "coordinates": [ -57.58759535, -25.33759536 ] } },
{ "type": "Feature", "properties": { "direccion": "FDO. DE LA MORA E YBAPOVO", "tipo": "Estación de Servicio", "distrito": "ASUNCION", "departamento": "ASUNCION", "distribuidor": "BARCOS Y RODADOS SA", "operador": "COMBU BAR COMPANY SRL", "marker_icon": "BR" }, "geometry": { "type": "Point", "coordinates": [ -57.59235756, -25.33155248 ] } },
{ "type": "Feature", "properties": { "direccion": "FDO. DE LA MORA C\/ YBAPURU", "tipo": "Estación de Servicio", "distrito": "ASUNCION", "departamento": "ASUNCION", "distribuidor": "PUMA ENERGY PARAGUAY SA", "operador": "FABIOLA SA", "marker_icon": "PUM" }, "geometry": { "type": "Point", "coordinates": [ -57.59160523, -25.33268183 ] } },
{ "type": "Feature", "properties": { "direccion": "DE LA VICTORIA Y JUASY Y", "tipo": "Estación de Servicio", "distrito": "ASUNCION", "departamento": "ASUNCION", "distribuidor": "COPETROL SA", "operador": "EPIFANIO ROMERO AMARILLA", "marker_icon": "CPT" }, "geometry": { "type": "Point", "coordinates": [ -57.58922422, -25.33304999 ] } },
{ "type": "Feature", "properties": { "direccion": "NARANJALES Y TOBATI", "tipo": "Puesto de Consumo Propio", "distrito": "ASUNCION", "departamento": "ASUNCION", "distribuidor": "3MG SACIA", "operador": "EMP. TRANSP. LA PILARENSE SRL", "marker_icon": "TMG" }, "geometry": { "type": "Point", "coordinates": [ -57.58319647, -25.33247369 ] } },
{ "type": "Feature", "properties": { "direccion": "TTE. 1 JOSE F. LOPEZ Y CARA CARA", "tipo": "Estación de Servicio", "distrito": "ASUNCION", "departamento": "ASUNCION", "distribuidor": "COPETROL SA", "operador": "COPETROL SA", "marker_icon": "CPT" }, "geometry": { "type": "Point", "coordinates": [ -57.57490337, -25.33023542 ] } },
{ "type": "Feature", "properties": { "direccion": "CAP. BALDOMERO RUIZ Y CESAR LOPEZ", "tipo": "Puesto de Consumo Propio", "distrito": "ASUNCION", "departamento": "ASUNCION", "distribuidor": "3MG SACIA", "operador": "EMP. TRANSP. RIO PARAGUAY SRL", "marker_icon": "TMG" }, "geometry": { "type": "Point", "coordinates": [ -57.57671561, -25.32656587 ] } },
{ "type": "Feature", "properties": { "direccion": "DEFENSORES DEL CHACO C\/ MIGUEL A. RIGUAL", "tipo": "Estación de Servicio", "distrito": "ASUNCION", "departamento": "ASUNCION", "distribuidor": "COPETROL SA", "operador": "PYTU MARANGATU SACI", "marker_icon": "CPT" }, "geometry": { "type": "Point", "coordinates": [ -57.5727363, -25.32499806 ] } },
{ "type": "Feature", "properties": { "direccion": "HERMANN GNEIMER Y LISTO VALOIS", "tipo": "Estación de Servicio", "distrito": "ASUNCION", "departamento": "ASUNCION", "distribuidor": "BARCOS Y RODADOS SA", "operador": "ESTACION BAHIA SA", "marker_icon": "BR" }, "geometry": { "type": "Point", "coordinates": [ -57.57006993, -25.23297307 ] } },
{ "type": "Feature", "properties": { "direccion": "RUTA TRANSCHACO C\/ JOSEFINA PLA", "tipo": "Estación de Servicio", "distrito": "ASUNCION", "departamento": "ASUNCION", "distribuidor": "PETROBRAS PARAGUAY SRL", "operador": "COLLIPEUMO SRL", "marker_icon": "PTBR" }, "geometry": { "type": "Point", "coordinates": [ -57.54245741, -25.23937256 ] } },
{ "type": "Feature", "properties": { "direccion": "SGTO. TOMAS LOMBARDO Y TATARE", "tipo": "Estación de Servicio", "distrito": "ASUNCION", "departamento": "ASUNCION", "distribuidor": "COPETROL SA", "operador": "EL SHAH SA", "marker_icon": "CPT" }, "geometry": { "type": "Point", "coordinates": [ -57.5415593, -25.24184817 ] } },
{ "type": "Feature", "properties": { "direccion": "RUTA TRANSCHACO Y DR. ESTEBAN SEMIDEI", "tipo": "Estación de Servicio", "distrito": "ASUNCION", "departamento": "ASUNCION", "distribuidor": "BARCOS Y RODADOS SA", "operador": "COMBU BAR COMPANY SRL", "marker_icon": "BR" }, "geometry": { "type": "Point", "coordinates": [ -57.54999664, -25.24745714 ] } },
{ "type": "Feature", "properties": { "direccion": "RUTA TRANSCHACO Y TTE. 1 ELEUTERIO GADEA", "tipo": "Estación de Servicio", "distrito": "ASUNCION", "departamento": "ASUNCION", "distribuidor": "PUMA ENERGY PARAGUAY SA", "operador": "TRANSPORTADORA LA SUSANA SA", "marker_icon": "PUM" }, "geometry": { "type": "Point", "coordinates": [ -57.55239985, -25.24981939 ] } },
{ "type": "Feature", "properties": { "direccion": "RUTA TRANSCHACO Y TTE. 1 GREGORIO VILLALBA", "tipo": "Estación de Servicio", "distrito": "ASUNCION", "departamento": "ASUNCION", "distribuidor": "PETROBRAS PARAGUAY SRL", "operador": "EESS SANTA TERESA SRL", "marker_icon": "PTBR" }, "geometry": { "type": "Point", "coordinates": [ -57.5536669, -25.25069199 ] } },
{ "type": "Feature", "properties": { "direccion": "RUTA TRANSCHACO Y YAGUARON", "tipo": "Estación de Servicio", "distrito": "ASUNCION", "departamento": "ASUNCION", "distribuidor": "BARCOS Y RODADOS SA", "operador": "ESTACION BAHIA SA", "marker_icon": "BR" }, "geometry": { "type": "Point", "coordinates": [ -57.55927664, -25.25306883 ] } },
{ "type": "Feature", "properties": { "direccion": "PRIMER PRESIDENTE C\/ YRENDAGUE", "tipo": "Estación de Servicio", "distrito": "ASUNCION", "departamento": "ASUNCION", "distribuidor": "COPETROL SA", "operador": "GESTION DE SERVICIOS SA", "marker_icon": "CPT" }, "geometry": { "type": "Point", "coordinates": [ -57.57195955, -25.25607319 ] } },
{ "type": "Feature", "properties": { "direccion": "PRIMER PRESIDENTE Y SANTISIMO SACRAMENTO", "tipo": "Estación de Servicio", "distrito": "ASUNCION", "departamento": "ASUNCION", "distribuidor": "BARCOS Y RODADOS SA", "operador": "COMBU BAR COMPANY SRL", "marker_icon": "BR" }, "geometry": { "type": "Point", "coordinates": [ -57.57562907, -25.25381195 ] } },
{ "type": "Feature", "properties": { "direccion": "PRIMER PRESIDENTE Y ARTIGAS", "tipo": "Estación de Servicio", "distrito": "ASUNCION", "departamento": "ASUNCION", "distribuidor": "BARCOS Y RODADOS SA", "operador": "ESTACION BAHIA SA", "marker_icon": "BR" }, "geometry": { "type": "Point", "coordinates": [ -57.57867893, -25.25203369 ] } },
{ "type": "Feature", "properties": { "direccion": "ARTIGAS Y SANTISIMA TRINIDAD", "tipo": "Estación de Servicio", "distrito": "ASUNCION", "departamento": "ASUNCION", "distribuidor": "PETROBRAS PARAGUAY SRL", "operador": "ZALARA SA", "marker_icon": "PTBR" }, "geometry": { "type": "Point", "coordinates": [ -57.58346473, -25.2561751 ] } },
{ "type": "Feature", "properties": { "direccion": "ARTIGAS Y PASTOR IBAEZ", "tipo": "Estación de Servicio", "distrito": "ASUNCION", "departamento": "ASUNCION", "distribuidor": "GAS CORONA SAECA", "operador": "GAS CORONA SAECA", "marker_icon": "COR" }, "geometry": { "type": "Point", "coordinates": [ -57.58819608, -25.26006425 ] } },
{ "type": "Feature", "properties": { "direccion": "SANTISIMO SACRAMENTO Y GENARO ROMERO", "tipo": "Estación de Servicio", "distrito": "ASUNCION", "departamento": "ASUNCION", "distribuidor": "BARCOS Y RODADOS SA", "operador": "ESTACION BAHIA SA", "marker_icon": "BR" }, "geometry": { "type": "Point", "coordinates": [ -57.58261162, -25.2672936 ] } },
{ "type": "Feature", "properties": { "direccion": "SUIZA Y ARTIGAS", "tipo": "Estación de Servicio", "distrito": "ASUNCION", "departamento": "ASUNCION", "distribuidor": "PETROBRAS PARAGUAY SRL", "operador": "UMBRIA SRL", "marker_icon": "PTBR" }, "geometry": { "type": "Point", "coordinates": [ -57.59512062, -25.26428645 ] } },
{ "type": "Feature", "properties": { "direccion": "ARTIGAS Y CANDELARIA", "tipo": "Estación de Servicio", "distrito": "ASUNCION", "departamento": "ASUNCION", "distribuidor": "COPETROL SA", "operador": "GESTION DE SERVICIOS SA", "marker_icon": "CPT" }, "geometry": { "type": "Point", "coordinates": [ -57.59642039, -25.26525371 ] } },
{ "type": "Feature", "properties": { "direccion": "FERNANDO DE LA MORA Y RCA. ARGENTINA", "tipo": "Estación de Servicio", "distrito": "ASUNCION", "departamento": "ASUNCION", "distribuidor": "COMBUSTIBLES INTEGRAL TRADING SA", "operador": "RICARDO A. ESCAURIZA GARCIA", "marker_icon": "INT" }, "geometry": { "type": "Point", "coordinates": [ -57.5953879, -25.32719582 ] } },
{ "type": "Feature", "properties": { "direccion": "FERNANDO DE LA MORA Y MEDICOS DEL CHACO", "tipo": "Estación de Servicio", "distrito": "ASUNCION", "departamento": "ASUNCION", "distribuidor": "AXION ENERGY PARAGUAY SRL", "operador": "PALERMO SRL", "marker_icon": "AXN" }, "geometry": { "type": "Point", "coordinates": [ -57.60098491, -25.32360028 ] } },
{ "type": "Feature", "properties": { "direccion": "TTE. VICENTE ROLON VIERA Y OSVALDO KALLSEN", "tipo": "Puesto de Consumo Propio", "distrito": "ASUNCION", "departamento": "ASUNCION", "distribuidor": "3MG SACIA", "operador": "EMP. TRANSP. SAN JORGE SA", "marker_icon": "TMG" }, "geometry": { "type": "Point", "coordinates": [ -57.60408265, -25.32282802 ] } },
{ "type": "Feature", "properties": { "direccion": "FERNANDO DE LA MORA Y TTE. VICENTE ROLON VIERA", "tipo": "Estación de Servicio", "distrito": "ASUNCION", "departamento": "ASUNCION", "distribuidor": "PUMA ENERGY PARAGUAY SA", "operador": "POSTA SAICIFA", "marker_icon": "PUM" }, "geometry": { "type": "Point", "coordinates": [ -57.60349283, -25.3223032 ] } },
{ "type": "Feature", "properties": { "direccion": "TTE. 2 VICENTE FLORES Y JULIO CORREA", "tipo": "Estación de Servicio", "distrito": "ASUNCION", "departamento": "ASUNCION", "distribuidor": "BARCOS Y RODADOS SA", "operador": "JOSE R. UGARRIZA DIAZ BENZA", "marker_icon": "BR" }, "geometry": { "type": "Point", "coordinates": [ -57.56319333, -25.2688251 ] } },
{ "type": "Feature", "properties": { "direccion": "SANTISIMA TRINIDAD Y JULIO CORREA", "tipo": "Estación de Servicio", "distrito": "ASUNCION", "departamento": "ASUNCION", "distribuidor": "PETROBRAS PARAGUAY SRL", "operador": "GABANA SA", "marker_icon": "PTBR" }, "geometry": { "type": "Point", "coordinates": [ -57.56333002, -25.26950389 ] } },
{ "type": "Feature", "properties": { "direccion": "AVIADORES DEL CHACO Y MADAME LYNCH", "tipo": "Estación de Servicio", "distrito": "ASUNCION", "departamento": "ASUNCION", "distribuidor": "PETROBRAS PARAGUAY SRL", "operador": "COMBUSTIBLES SA", "marker_icon": "PTBR" }, "geometry": { "type": "Point", "coordinates": [ -57.54583163, -25.2759241 ] } },
{ "type": "Feature", "properties": { "direccion": "JUEZ ENRIQUE PINHO C\/ AVIADORES DEL CHACO", "tipo": "Puesto de Consumo Propio", "distrito": "ASUNCION", "departamento": "ASUNCION", "distribuidor": "PETROBRAS PARAGUAY SRL", "operador": "BENITO ROGGIO", "marker_icon": "PTBR" }, "geometry": { "type": "Point", "coordinates": [ -57.54694587, -25.27616029 ] } },
{ "type": "Feature", "properties": { "direccion": "RUTA TRANSCHACO Y HERNANDARIAS", "tipo": "Estación de Servicio", "distrito": "MARIANO ROQUE ALONSO", "departamento": "CENTRAL", "distribuidor": "PETROBRAS PARAGUAY SRL", "operador": "VIENTOS DEL CHACO SA", "marker_icon": "PTBR" }, "geometry": { "type": "Point", "coordinates": [ -57.534446, -25.2277259 ] } },
{ "type": "Feature", "properties": { "direccion": "RUTA GRAL. AQUINO", "tipo": "Puesto de Consumo Propio", "distrito": "MARIANO ROQUE ALONSO", "departamento": "CENTRAL", "distribuidor": "EMPRENDIMIENTOS COMERCIALES Y PRODUCTIVOS (ECOP SA)", "operador": "COOPERATIVA CHORTITZER LTDA", "marker_icon": "ECO" }, "geometry": { "type": "Point", "coordinates": [ -57.51070209, -25.19412116 ] } },
{ "type": "Feature", "properties": { "direccion": "RUTA TRANSCHACO Y WALDINO R. LOVERA", "tipo": "Estación de Servicio", "distrito": "MARIANO ROQUE ALONSO", "departamento": "CENTRAL", "distribuidor": "PETROBRAS PARAGUAY SRL", "operador": "LUA SRL", "marker_icon": "PTBR" }, "geometry": { "type": "Point", "coordinates": [ -57.53865511, -25.23438049 ] } },
{ "type": "Feature", "properties": { "direccion": "RUTA TRANSCHACO C\/ EUSEBIO AYALA", "tipo": "Estación de Servicio", "distrito": "MARIANO ROQUE ALONSO", "departamento": "CENTRAL", "distribuidor": "PETROPAR", "operador": "ESTACION BAHIA SA", "marker_icon": "PTP" }, "geometry": { "type": "Point", "coordinates": [ -57.53829184, -25.23185782 ] } },
{ "type": "Feature", "properties": { "direccion": "EL REDENTOR (REMANSO CASTILLO)", "tipo": "Estación de Servicio", "distrito": "MARIANO ROQUE ALONSO", "departamento": "CENTRAL", "distribuidor": "GASUR SRL", "operador": "SAN BENITO ABAD SRL", "marker_icon": "GSR" }, "geometry": { "type": "Point", "coordinates": [ -57.55152177, -25.19510208 ] } },
{ "type": "Feature", "properties": { "direccion": "RUTA TRANSCHACO", "tipo": "Puesto de Consumo Propio", "distrito": "MARIANO ROQUE ALONSO", "departamento": "CENTRAL", "distribuidor": "GASUR SRL", "operador": "JUAN BAUTISTA FERNANDEZ", "marker_icon": "GSR" }, "geometry": { "type": "Point", "coordinates": [ -57.51182948, -25.19601348 ] } },
{ "type": "Feature", "properties": { "direccion": "BERNARDINO CABALLERO Y CONCORDIA", "tipo": "Estación de Servicio", "distrito": "MARIANO ROQUE ALONSO", "departamento": "CENTRAL", "distribuidor": "PETROSUR SA", "operador": "CALCHAQUI S.A.", "marker_icon": "PSR" }, "geometry": { "type": "Point", "coordinates": [ -57.51306766, -25.21172984 ] } },
{ "type": "Feature", "properties": { "direccion": "RUTA TRANSCHACO Y CARLOS A. LOPEZ", "tipo": "Estación de Servicio", "distrito": "MARIANO ROQUE ALONSO", "departamento": "CENTRAL", "distribuidor": "PUMA ENERGY PARAGUAY SA", "operador": "FABIOLA SA", "marker_icon": "PUM" }, "geometry": { "type": "Point", "coordinates": [ -57.53376667, -25.22618882 ] } },
{ "type": "Feature", "properties": { "direccion": "BERNARDINO CABALLERO Y CAP. AVEIRO", "tipo": "Estación de Servicio", "distrito": "MARIANO ROQUE ALONSO", "departamento": "CENTRAL", "distribuidor": "COPETROL SA", "operador": "GENERAL SANTOS SA", "marker_icon": "CPT" }, "geometry": { "type": "Point", "coordinates": [ -57.51735584, -25.21583083 ] } },
{ "type": "Feature", "properties": { "direccion": "BERNARDINO CABALLERO Y TARUMA", "tipo": "Estación de Servicio", "distrito": "MARIANO ROQUE ALONSO", "departamento": "CENTRAL", "distribuidor": "COPETROL SA", "operador": "RASI SRL", "marker_icon": "CPT" }, "geometry": { "type": "Point", "coordinates": [ -57.50367288, -25.20121124 ] } },
{ "type": "Feature", "properties": { "direccion": "PIRIZAL Y NANAWA", "tipo": "Estación de Servicio", "distrito": "MARIANO ROQUE ALONSO", "departamento": "CENTRAL", "distribuidor": "COPETROL SA", "operador": "GENERAL SANTOS SA", "marker_icon": "CPT" }, "geometry": { "type": "Point", "coordinates": [ -57.53296978, -25.20735453 ] } },
{ "type": "Feature", "properties": { "direccion": "COLOMBIA Y MEXICO", "tipo": "Estación de Servicio", "distrito": "MARIANO ROQUE ALONSO", "departamento": "CENTRAL", "distribuidor": "COPETROL SA", "operador": "GARRIDO SA", "marker_icon": "CPT" }, "geometry": { "type": "Point", "coordinates": [ -57.52628769, -25.1877693 ] } },
{ "type": "Feature", "properties": { "direccion": "GERVACIO LEON Y CALLE SIN NOMBRE", "tipo": "Estación de Servicio", "distrito": "MARIANO ROQUE ALONSO", "departamento": "CENTRAL", "distribuidor": "COPETROL SA", "operador": "GESTION DE SERVICIOS SA", "marker_icon": "CPT" }, "geometry": { "type": "Point", "coordinates": [ -57.51802567, -25.20646434 ] } },
{ "type": "Feature", "properties": { "direccion": "BERNARDINO CABALLERO Y CAP. PEDRO I. MEZA", "tipo": "Estación de Servicio", "distrito": "MARIANO ROQUE ALONSO", "departamento": "CENTRAL", "distribuidor": "BARCOS Y RODADOS SA", "operador": "MAVENI SRL", "marker_icon": "BR" }, "geometry": { "type": "Point", "coordinates": [ -57.52013146, -25.21815132 ] } },
{ "type": "Feature", "properties": { "direccion": "RUTA TRANSCHACO Y LUIS A. DE HERRERA", "tipo": "Estación de Servicio", "distrito": "MARIANO ROQUE ALONSO", "departamento": "CENTRAL", "distribuidor": "BARCOS Y RODADOS SA", "operador": "COMBU BAR COMPANY SRL", "marker_icon": "BR" }, "geometry": { "type": "Point", "coordinates": [ -57.53896073, -25.23381084 ] } },
{ "type": "Feature", "properties": { "direccion": "GERVACIO LEON", "tipo": "Estación de Servicio", "distrito": "MARIANO ROQUE ALONSO", "departamento": "CENTRAL", "distribuidor": "BARCOS Y RODADOS SA", "operador": "GENERAL SANTOS SA", "marker_icon": "BR" }, "geometry": { "type": "Point", "coordinates": [ -57.52195757, -25.20380798 ] } },
{ "type": "Feature", "properties": { "direccion": "ARTIGAS Y ENTRE RIOS", "tipo": "Estación de Servicio", "distrito": "ASUNCION", "departamento": "ASUNCION", "distribuidor": "PUMA ENERGY PARAGUAY SA", "operador": "GABANA SA", "marker_icon": "PUM" }, "geometry": { "type": "Point", "coordinates": [ -57.60820752, -25.27465997 ] } },
{ "type": "Feature", "properties": { "direccion": "JUAN DE SALAZAR Y SALTOS DEL GUAIRA", "tipo": "Estación de Servicio", "distrito": "ASUNCION", "departamento": "ASUNCION", "distribuidor": "BARCOS Y RODADOS SA", "operador": "UNI PARAGUAY SA", "marker_icon": "BR" }, "geometry": { "type": "Point", "coordinates": [ -57.61600836, -25.2845595 ] } },
{ "type": "Feature", "properties": { "direccion": "ESPAÑA Y WASHINGTON", "tipo": "Estación de Servicio", "distrito": "ASUNCION", "departamento": "ASUNCION", "distribuidor": "AXION ENERGY PARAGUAY SRL", "operador": "AXION ENERGY PARAGUAY SRL", "marker_icon": "AXN" }, "geometry": { "type": "Point", "coordinates": [ -57.61433171, -25.28694565 ] } },
{ "type": "Feature", "properties": { "direccion": "BRASILIA Y SGTO. GAUTO", "tipo": "Estación de Servicio", "distrito": "ASUNCION", "departamento": "ASUNCION", "distribuidor": "BARCOS Y RODADOS SA", "operador": "COMBU BAR COMPANY SRL", "marker_icon": "BR" }, "geometry": { "type": "Point", "coordinates": [ -57.6003, -25.28135088 ] } },
{ "type": "Feature", "properties": { "direccion": "TTE. 2 BENIGNO VILLAMAYOR Y VENEZUELA", "tipo": "Estación de Servicio", "distrito": "ASUNCION", "departamento": "ASUNCION", "distribuidor": "PETROBRAS PARAGUAY SRL", "operador": "WASHINGTON SRL", "marker_icon": "PTBR" }, "geometry": { "type": "Point", "coordinates": [ -57.59434279, -25.27890215 ] } },
{ "type": "Feature", "properties": { "direccion": "LIBERTAD Y REPUBLICA DOMINICANA", "tipo": "Estación de Servicio", "distrito": "ASUNCION", "departamento": "ASUNCION", "distribuidor": "COPETROL SA", "operador": "GUIDO GAONA JARA", "marker_icon": "CPT" }, "geometry": { "type": "Point", "coordinates": [ -57.60425796, -25.28255206 ] } },
{ "type": "Feature", "properties": { "direccion": "ESPAÑA Y BRASILIA", "tipo": "Estación de Servicio", "distrito": "ASUNCION", "departamento": "ASUNCION", "distribuidor": "AXION ENERGY PARAGUAY SRL", "operador": "ESSO STANDARD PARAGUAY SA", "marker_icon": "AXN" }, "geometry": { "type": "Point", "coordinates": [ -57.60272582, -25.28854246 ] } },
{ "type": "Feature", "properties": { "direccion": "MCAL. LOPEZ Y VENEZUELA", "tipo": "Estación de Servicio", "distrito": "ASUNCION", "departamento": "ASUNCION", "distribuidor": "PETROBRAS PARAGUAY SRL", "operador": "CENTENARIO SA", "marker_icon": "PTBR" }, "geometry": { "type": "Point", "coordinates": [ -57.59712384, -25.29109011 ] } },
{ "type": "Feature", "properties": { "direccion": "MCAL. LOPEZ Y SANTA ROSA", "tipo": "Estación de Servicio", "distrito": "ASUNCION", "departamento": "ASUNCION", "distribuidor": "BARCOS Y RODADOS SA", "operador": "COMBU BAR COMPANY SRL", "marker_icon": "BR" }, "geometry": { "type": "Point", "coordinates": [ -57.59247845, -25.28985664 ] } },
{ "type": "Feature", "properties": { "direccion": "ESPAÑA Y SANTISIMO SACRAMENTO", "tipo": "Estación de Servicio", "distrito": "ASUNCION", "departamento": "ASUNCION", "distribuidor": "PUMA ENERGY PARAGUAY SA", "operador": "PARANA SERVICE SA", "marker_icon": "PUM" }, "geometry": { "type": "Point", "coordinates": [ -57.58899303, -25.28682261 ] } },
{ "type": "Feature", "properties": { "direccion": "ESPAÑA Y SANTISIMO SACRAMENTO", "tipo": "Estación de Servicio", "distrito": "ASUNCION", "departamento": "ASUNCION", "distribuidor": "PETROBRAS PARAGUAY SRL", "operador": "OPERACIONES COMERCIALES SA", "marker_icon": "PTBR" }, "geometry": { "type": "Point", "coordinates": [ -57.58899037, -25.28642865 ] } },
{ "type": "Feature", "properties": { "direccion": "SANTISIMO SACRAMENTO Y FRANCISCO CHAVEZ", "tipo": "Estación de Servicio", "distrito": "ASUNCION", "departamento": "ASUNCION", "distribuidor": "PETROBRAS PARAGUAY SRL", "operador": "TRANSPORTADORA LA SUSANA SA", "marker_icon": "PTBR" }, "geometry": { "type": "Point", "coordinates": [ -57.58792999, -25.28489539 ] } },
{ "type": "Feature", "properties": { "direccion": "11 DE SETIEMBRE E ISLA POI", "tipo": "Estación de Servicio", "distrito": "FERNANDO DE LA MORA", "departamento": "CENTRAL", "distribuidor": "PETROBRAS PARAGUAY SRL", "operador": "11 DE SETIEMBRE", "marker_icon": "PTBR" }, "geometry": { "type": "Point", "coordinates": [ -57.54933377, -25.34278715 ] } },
{ "type": "Feature", "properties": { "direccion": "DR. ANTOLIN IRALA Y MADAME LYNCH", "tipo": "Estación de Servicio", "distrito": "ASUNCION", "departamento": "ASUNCION", "distribuidor": "BARCOS Y RODADOS SA", "operador": "COMBU BAR COMPANY SRL", "marker_icon": "BR" }, "geometry": { "type": "Point", "coordinates": [ -57.55188661, -25.29886776 ] } },
{ "type": "Feature", "properties": { "direccion": "SANTA TERESA Y CNEL. MARTINEZ", "tipo": "Estación de Servicio", "distrito": "ASUNCION", "departamento": "ASUNCION", "distribuidor": "PETROBRAS PARAGUAY SRL", "operador": "EESS SANTA TERESA SRL", "marker_icon": "PTBR" }, "geometry": { "type": "Point", "coordinates": [ -57.54525423, -25.29789983 ] } },
{ "type": "Feature", "properties": { "direccion": "MCAL. LOPEZ Y MADAME LYNCH", "tipo": "Estación de Servicio", "distrito": "ASUNCION", "departamento": "ASUNCION", "distribuidor": "PETROBRAS PARAGUAY SRL", "operador": "ALEJANDRO J. GONZALEZ MEYER", "marker_icon": "PTBR" }, "geometry": { "type": "Point", "coordinates": [ -57.5538303, -25.30737406 ] } },
{ "type": "Feature", "properties": { "direccion": "MCAL.LOPEZ Y MADAME LYNCH", "tipo": "Estación de Servicio", "distrito": "ASUNCION", "departamento": "ASUNCION", "distribuidor": "COPETROL SA", "operador": "GESTION DE SERVICIOS SA", "marker_icon": "CPT" }, "geometry": { "type": "Point", "coordinates": [ -57.55363281, -25.30703453 ] } },
{ "type": "Feature", "properties": { "direccion": "MCAL. LOPEZ Y SAN MARTIN", "tipo": "Estación de Servicio", "distrito": "ASUNCION", "departamento": "ASUNCION", "distribuidor": "AXION ENERGY PARAGUAY SRL", "operador": "ESSO STANDARD PARAGUAY SA", "marker_icon": "AXN" }, "geometry": { "type": "Point", "coordinates": [ -57.57669048, -25.29521326 ] } },
{ "type": "Feature", "properties": { "direccion": "CHOFERES DEL CHACO Y CHACO BOREAL", "tipo": "Estación de Servicio", "distrito": "ASUNCION", "departamento": "ASUNCION", "distribuidor": "BARCOS Y RODADOS SA", "operador": "UNI PARAGUAY SA", "marker_icon": "BR" }, "geometry": { "type": "Point", "coordinates": [ -57.59246187, -25.29435532 ] } },
{ "type": "Feature", "properties": { "direccion": "PTE. HAYES C\/ GRAL. MAXIMO SANTOS", "tipo": "Puesto de Consumo Propio", "distrito": "ASUNCION", "departamento": "ASUNCION", "distribuidor": "PETROPAR", "operador": "MOPC", "marker_icon": "PTP" }, "geometry": { "type": "Point", "coordinates": [ -57.61142549, -25.29017364 ] } },
{ "type": "Feature", "properties": { "direccion": "MCAL. LOPEZ Y GRAL. BERNARDINO CABALLERO", "tipo": "Estación de Servicio", "distrito": "ASUNCION", "departamento": "ASUNCION", "distribuidor": "PETROBRAS PARAGUAY SRL", "operador": "ZUSA SACI", "marker_icon": "PTBR" }, "geometry": { "type": "Point", "coordinates": [ -57.60650699, -25.29337464 ] } },
{ "type": "Feature", "properties": { "direccion": "MCAL. LOPEZ Y JUSCELINO KUBISTCHEK", "tipo": "Puesto de Consumo Propio", "distrito": "ASUNCION", "departamento": "ASUNCION", "distribuidor": "PETROBRAS PARAGUAY SRL", "operador": "EMBAJADA AMERICANA", "marker_icon": "PTBR" }, "geometry": { "type": "Point", "coordinates": [ -57.60458408, -25.29529456 ] } },
{ "type": "Feature", "properties": { "direccion": "TEODORO S. MONGELOS Y GRAL. BERNARDINO CABALLERO", "tipo": "Estación de Servicio", "distrito": "ASUNCION", "departamento": "ASUNCION", "distribuidor": "PUMA ENERGY PARAGUAY SA", "operador": "KIRCAC SACIA", "marker_icon": "PUM" }, "geometry": { "type": "Point", "coordinates": [ -57.60943881, -25.30243132 ] } },
{ "type": "Feature", "properties": { "direccion": "EUSEBIO AYALA Y GRAL. BERNARDINO CABALLERO", "tipo": "Estación de Servicio", "distrito": "ASUNCION", "departamento": "ASUNCION", "distribuidor": "COPETROL SA", "operador": "WENCESLAO ROJAS", "marker_icon": "CPT" }, "geometry": { "type": "Point", "coordinates": [ -57.61038574, -25.30373915 ] } },
{ "type": "Feature", "properties": { "direccion": "JUSCELINO KUBISTCHEK Y JOSE A. FLORES", "tipo": "Estación de Servicio", "distrito": "ASUNCION", "departamento": "ASUNCION", "distribuidor": "AXION ENERGY PARAGUAY SRL", "operador": "AXION ENERGY PARAGUAY SRL", "marker_icon": "AXN" }, "geometry": { "type": "Point", "coordinates": [ -57.60686743, -25.30402021 ] } },
{ "type": "Feature", "properties": { "direccion": "EUSEBIO AYALA Y BARTOLOME DE LAS CASAS", "tipo": "Estación de Servicio", "distrito": "ASUNCION", "departamento": "ASUNCION", "distribuidor": "COPETROL SA", "operador": "GESTION DE SERVICIOS SA", "marker_icon": "CPT" }, "geometry": { "type": "Point", "coordinates": [ -57.60219091, -25.30702632 ] } },
{ "type": "Feature", "properties": { "direccion": "JOSE A. FLORES Y TTE. VICTORIANO ALVARENGA", "tipo": "Estación de Servicio", "distrito": "ASUNCION", "departamento": "ASUNCION", "distribuidor": "PETROBRAS PARAGUAY SRL", "operador": "LUA SRL", "marker_icon": "PTBR" }, "geometry": { "type": "Point", "coordinates": [ -57.60053054, -25.3062293 ] } },
{ "type": "Feature", "properties": { "direccion": "EUSEBIO AYALA Y TTE. RIQUELME", "tipo": "Estación de Servicio", "distrito": "ASUNCION", "departamento": "ASUNCION", "distribuidor": "PETROBRAS PARAGUAY SRL", "operador": "MOVITER I.C.S.A.", "marker_icon": "PTBR" }, "geometry": { "type": "Point", "coordinates": [ -57.59781312, -25.30843311 ] } },
{ "type": "Feature", "properties": { "direccion": "TTE. AYALA Y TTE. 2 JORGE ALCORTA", "tipo": "Estación de Servicio", "distrito": "ASUNCION", "departamento": "ASUNCION", "distribuidor": "GAS CORONA SAECA", "operador": "RAPIDO CAAGUAZU SAC", "marker_icon": "COR" }, "geometry": { "type": "Point", "coordinates": [ -57.59762472, -25.30909462 ] } },
{ "type": "Feature", "properties": { "direccion": "EUSEBIO AYALA Y CHOFERES DEL CHACO", "tipo": "Estación de Servicio", "distrito": "ASUNCION", "departamento": "ASUNCION", "distribuidor": "BARCOS Y RODADOS SA", "operador": "UNI PARAGUAY SA", "marker_icon": "BR" }, "geometry": { "type": "Point", "coordinates": [ -57.59585754, -25.30831338 ] } },
{ "type": "Feature", "properties": { "direccion": "GRAL. MAXIMO SANTOS C\/ DELICIO INSFRAN", "tipo": "Estación de Servicio", "distrito": "ASUNCION", "departamento": "ASUNCION", "distribuidor": "BARCOS Y RODADOS SA", "operador": "GENERAL SANTOS SA", "marker_icon": "BR" }, "geometry": { "type": "Point", "coordinates": [ -57.62098246, -25.31925583 ] } },
{ "type": "Feature", "properties": { "direccion": "GRAL. SANTOS Y PIRIZAL", "tipo": "Estación de Servicio", "distrito": "ASUNCION", "departamento": "ASUNCION", "distribuidor": "PETROBRAS PARAGUAY SRL", "operador": "NBG SRL", "marker_icon": "PTBR" }, "geometry": { "type": "Point", "coordinates": [ -57.61943475, -25.31539933 ] } },
{ "type": "Feature", "properties": { "direccion": "PROCERES DE MAYO Y GRAL. MAXIMO SANTOS", "tipo": "Estación de Servicio", "distrito": "ASUNCION", "departamento": "ASUNCION", "distribuidor": "COPETROL SA", "operador": "DELIA ALFONZO DE ROJAS", "marker_icon": "CPT" }, "geometry": { "type": "Point", "coordinates": [ -57.61579186, -25.30848118 ] } },
{ "type": "Feature", "properties": { "direccion": "DR. FERNANDO DE LA MORA Y AMANCIO GONZALEZ", "tipo": "Estación de Servicio", "distrito": "ASUNCION", "departamento": "ASUNCION", "distribuidor": "PETROBRAS PARAGUAY SRL", "operador": "CONVENIENCIA SRL", "marker_icon": "PTBR" }, "geometry": { "type": "Point", "coordinates": [ -57.61018012, -25.31485103 ] } },
{ "type": "Feature", "properties": { "direccion": "FERNANDO DE LA MORA Y PARIRI", "tipo": "Estación de Servicio", "distrito": "ASUNCION", "departamento": "ASUNCION", "distribuidor": "BARCOS Y RODADOS SA", "operador": "COMBU BAR COMPANY SRL", "marker_icon": "BR" }, "geometry": { "type": "Point", "coordinates": [ -57.60846724, -25.31568602 ] } },
{ "type": "Feature", "properties": { "direccion": "MEDICOS DEL CHACO Y PILAR", "tipo": "Estación de Servicio", "distrito": "ASUNCION", "departamento": "ASUNCION", "distribuidor": "PUMA ENERGY PARAGUAY SA", "operador": "POSTA SAICIFA", "marker_icon": "PUM" }, "geometry": { "type": "Point", "coordinates": [ -57.59918437, -25.31923373 ] } },
{ "type": "Feature", "properties": { "direccion": "TTE. ALCIDES GONZALEZ Y TOBATI", "tipo": "Puesto de Consumo Propio", "distrito": "ASUNCION", "departamento": "ASUNCION", "distribuidor": "3MG SACIA", "operador": "EMPRESA PYCASU SA", "marker_icon": "TMG" }, "geometry": { "type": "Point", "coordinates": [ -57.59558866, -25.32220359 ] } },
{ "type": "Feature", "properties": { "direccion": "REPUBLICA ARGENTINA Y CAAGUAZU", "tipo": "Estación de Servicio", "distrito": "ASUNCION", "departamento": "ASUNCION", "distribuidor": "PETROMAX SA", "operador": "GUIDO E. CABALLERO GONZALEZ", "marker_icon": "PMX" }, "geometry": { "type": "Point", "coordinates": [ -57.59538491, -25.32275612 ] } },
{ "type": "Feature", "properties": { "direccion": "PILAR Y LAPACHO", "tipo": "Estación de Servicio", "distrito": "ASUNCION", "departamento": "ASUNCION", "distribuidor": "PETROBRAS PARAGUAY SRL", "operador": "PETROBRAS PARAGUAY SRL", "marker_icon": "PTBR" }, "geometry": { "type": "Point", "coordinates": [ -57.59373701, -25.32210756 ] } },
{ "type": "Feature", "properties": { "direccion": "REPUBLICA ARGENTINA Y ANGEL FLORENTIN PEÑA", "tipo": "Estación de Servicio", "distrito": "ASUNCION", "departamento": "ASUNCION", "distribuidor": "COPETROL SA", "operador": "LUIS MARINO RUIZ RAHI", "marker_icon": "CPT" }, "geometry": { "type": "Point", "coordinates": [ -57.59030477, -25.31595636 ] } },
{ "type": "Feature", "properties": { "direccion": "25 DE MAYO Y TTE. RAMELLA", "tipo": "Estación de Servicio", "distrito": "ASUNCION", "departamento": "ASUNCION", "distribuidor": "COPETROL SA", "operador": "GESTION DE SERVICIOS SA", "marker_icon": "CPT" }, "geometry": { "type": "Point", "coordinates": [ -57.59528264, -25.30120457 ] } },
{ "type": "Feature", "properties": { "direccion": "REPUBLICA ARGENTINA Y TTE. MANUEL MELLONE", "tipo": "Estación de Servicio", "distrito": "ASUNCION", "departamento": "ASUNCION", "distribuidor": "PUMA ENERGY PARAGUAY SA", "operador": "PINK SA", "marker_icon": "PUM" }, "geometry": { "type": "Point", "coordinates": [ -57.58479609, -25.30833714 ] } },
{ "type": "Feature", "properties": { "direccion": "EUSEBIO AYALA Y TTE. ANGEL ESPINOZA", "tipo": "Estación de Servicio", "distrito": "ASUNCION", "departamento": "ASUNCION", "distribuidor": "PETROBRAS PARAGUAY SRL", "operador": "ZUSA SACI", "marker_icon": "PTBR" }, "geometry": { "type": "Point", "coordinates": [ -57.58502581, -25.31212593 ] } },
{ "type": "Feature", "properties": { "direccion": "EUSEBIO AYALA Y RI 18 PITIANTUTA", "tipo": "Estación de Servicio", "distrito": "ASUNCION", "departamento": "ASUNCION", "distribuidor": "BARCOS Y RODADOS SA", "operador": "COMBU BAR COMPANY SRL", "marker_icon": "BR" }, "geometry": { "type": "Point", "coordinates": [ -57.57481117, -25.31574251 ] } },
{ "type": "Feature", "properties": { "direccion": "TTE. 1 JOSE FELIX LOPEZ Y MAESTRO FERMIN LOPEZ", "tipo": "Estación de Servicio", "distrito": "ASUNCION", "departamento": "ASUNCION", "distribuidor": "BARCOS Y RODADOS SA", "operador": "ESTACION BAHIA SA", "marker_icon": "BR" }, "geometry": { "type": "Point", "coordinates": [ -57.57328369, -25.32148403 ] } },
{ "type": "Feature", "properties": { "direccion": "EUSEBIO AYALA Y TTE. 1 JOSE FELIX LOPEZ", "tipo": "Estación de Servicio", "distrito": "ASUNCION", "departamento": "ASUNCION", "distribuidor": "PETROBRAS PARAGUAY SRL", "operador": "NBG SRL", "marker_icon": "PTBR" }, "geometry": { "type": "Point", "coordinates": [ -57.57212329, -25.31736569 ] } },
{ "type": "Feature", "properties": { "direccion": "EUSEBIO AYALA Y GUIDO BOGGIANI", "tipo": "Estación de Servicio", "distrito": "ASUNCION", "departamento": "ASUNCION", "distribuidor": "PETROBRAS PARAGUAY SRL", "operador": "COMBUSTIBLES SA", "marker_icon": "PTBR" }, "geometry": { "type": "Point", "coordinates": [ -57.56526981, -25.31870905 ] } },
{ "type": "Feature", "properties": { "direccion": "FACUNDO MACHAIN Y RI 18 PITIANTUTA", "tipo": "Estación de Servicio", "distrito": "ASUNCION", "departamento": "ASUNCION", "distribuidor": "PUMA ENERGY PARAGUAY SA", "operador": "SANTIAGO LEZCANO", "marker_icon": "PUM" }, "geometry": { "type": "Point", "coordinates": [ -57.5696369, -25.31138757 ] } },
{ "type": "Feature", "properties": { "direccion": "GUIDO BOGGIANI Y CAMPOS CERVERA", "tipo": "Estación de Servicio", "distrito": "ASUNCION", "departamento": "ASUNCION", "distribuidor": "BARCOS Y RODADOS SA", "operador": "ESTACION BAHIA SA", "marker_icon": "BR" }, "geometry": { "type": "Point", "coordinates": [ -57.56494235, -25.30434365 ] } },
{ "type": "Feature", "properties": { "direccion": "MCAL. LOPEZ Y SINDULFO CASCO", "tipo": "Estación de Servicio", "distrito": "ASUNCION", "departamento": "ASUNCION", "distribuidor": "PETROBRAS PARAGUAY SRL", "operador": "GABANA SA", "marker_icon": "PTBR" }, "geometry": { "type": "Point", "coordinates": [ -57.56335628, -25.30207516 ] } },
{ "type": "Feature", "properties": { "direccion": "MCAL.LOPEZ Y GUMERCINDO SOSA", "tipo": "Estación de Servicio", "distrito": "ASUNCION", "departamento": "ASUNCION", "distribuidor": "PETROBRAS PARAGUAY SRL", "operador": "CONVENIENCIA SRL", "marker_icon": "PTBR" }, "geometry": { "type": "Point", "coordinates": [ -57.56735124, -25.29951142 ] } },
{ "type": "Feature", "properties": { "direccion": "MCAL. LOPEZ Y RI 14 CURUPAYTY", "tipo": "Estación de Servicio", "distrito": "ASUNCION", "departamento": "ASUNCION", "distribuidor": "BARCOS Y RODADOS SA", "operador": "ECOBAR SRL", "marker_icon": "BR" }, "geometry": { "type": "Point", "coordinates": [ -57.56647177, -25.30049927 ] } },
{ "type": "Feature", "properties": { "direccion": "LILLO Y EMETERIO MIRANDA", "tipo": "Estación de Servicio", "distrito": "ASUNCION", "departamento": "ASUNCION", "distribuidor": "COPETROL SA", "operador": "DELIA ALFONZO DE ROJAS", "marker_icon": "CPT" }, "geometry": { "type": "Point", "coordinates": [ -57.56155855, -25.29295387 ] } },
{ "type": "Feature", "properties": { "direccion": "LILLO Y CONCEJAL VARGAS", "tipo": "Estación de Servicio", "distrito": "ASUNCION", "departamento": "ASUNCION", "distribuidor": "PETROBRAS PARAGUAY SRL", "operador": "GABANA SA", "marker_icon": "PTBR" }, "geometry": { "type": "Point", "coordinates": [ -57.55535834, -25.29291263 ] } },
{ "type": "Feature", "properties": { "direccion": "SAN MARTIN Y AUSTRIA", "tipo": "Estación de Servicio", "distrito": "ASUNCION", "departamento": "ASUNCION", "distribuidor": "BARCOS Y RODADOS SA", "operador": "ECOBAR SRL", "marker_icon": "BR" }, "geometry": { "type": "Point", "coordinates": [ -57.57247675, -25.28817271 ] } },
{ "type": "Feature", "properties": { "direccion": "SAN MARTIN Y AVIADORES DEL CHACO, FINCAS Nº 2448, 2258 Y 8155, CTAS. CTES. CTRALES. Nº 14-0187-52\/53\/70", "tipo": "Estación de Servicio", "distrito": "ASUNCION", "departamento": "ASUNCION", "distribuidor": "BARCOS Y RODADOS SA", "operador": "ESTACION BAHIA SA", "marker_icon": "BR" }, "geometry": { "type": "Point", "coordinates": [ -57.57157713, -25.28661503 ] } },
{ "type": "Feature", "properties": { "direccion": "AVIADORES DEL CHACO Y PROF. DELIA DE GONZALEZ", "tipo": "Estación de Servicio", "distrito": "ASUNCION", "departamento": "ASUNCION", "distribuidor": "PETROBRAS PARAGUAY SRL", "operador": "ZALARA SA", "marker_icon": "PTBR" }, "geometry": { "type": "Point", "coordinates": [ -57.56793691, -25.28388712 ] } },
{ "type": "Feature", "properties": { "direccion": "AVIADORES DEL CHACO Y SANTA TERESA", "tipo": "Estación de Servicio", "distrito": "ASUNCION", "departamento": "ASUNCION", "distribuidor": "AXION ENERGY PARAGUAY SRL", "operador": "ESSO STANDARD PARAGUAY SA", "marker_icon": "AXN" }, "geometry": { "type": "Point", "coordinates": [ -57.5635407, -25.28355065 ] } },
{ "type": "Feature", "properties": { "direccion": "AVIADORES DEL CHACO C\/ TTE. ODDONE", "tipo": "Estación de Servicio", "distrito": "ASUNCION", "departamento": "ASUNCION", "distribuidor": "BARCOS Y RODADOS SA", "operador": "ESTACION BAHIA SA", "marker_icon": "BR" }, "geometry": { "type": "Point", "coordinates": [ -57.56197989, -25.28196489 ] } },
{ "type": "Feature", "properties": { "direccion": "MOLAS LOPEZ Y PAPA JUAN XXIII", "tipo": "Estación de Servicio", "distrito": "ASUNCION", "departamento": "ASUNCION", "distribuidor": "COPETROL SA", "operador": "DISTRIBUIDORA GLORIA SA", "marker_icon": "CPT" }, "geometry": { "type": "Point", "coordinates": [ -57.56060811, -25.28039893 ] } },
{ "type": "Feature", "properties": { "direccion": "AVIADORES DEL CHACO Y MOLAS LOPEZ", "tipo": "Estación de Servicio", "distrito": "ASUNCION", "departamento": "ASUNCION", "distribuidor": "BARCOS Y RODADOS SA", "operador": "UNI PARAGUAY SA", "marker_icon": "BR" }, "geometry": { "type": "Point", "coordinates": [ -57.5598672, -25.28040857 ] } },
{ "type": "Feature", "properties": { "direccion": "DR. MOLAS LOPEZ Y SAN MARTIN", "tipo": "Estación de Servicio", "distrito": "ASUNCION", "departamento": "ASUNCION", "distribuidor": "PETROBRAS PARAGUAY SRL", "operador": "GABANA SA", "marker_icon": "PTBR" }, "geometry": { "type": "Point", "coordinates": [ -57.56696893, -25.2761769 ] } },
{ "type": "Feature", "properties": { "direccion": "MCAL. LOPEZ C\/ LUIS IRRAZABAL", "tipo": "Estación de Servicio", "distrito": "FERNANDO DE LA MORA", "departamento": "CENTRAL", "distribuidor": "PETROMAX SA", "operador": "EXXA GREEN SRL", "marker_icon": "PMX" }, "geometry": { "type": "Point", "coordinates": [ -57.52566965, -25.31712082 ] } },
{ "type": "Feature", "properties": { "direccion": "SANTA TERESA Y JUAN  OLEARY", "tipo": "Estación de Servicio", "distrito": "FERNANDO DE LA MORA", "departamento": "CENTRAL", "distribuidor": "PETROPAR", "operador": "TECNIFROST SA", "marker_icon": "PTP" }, "geometry": { "type": "Point", "coordinates": [ -57.54252207, -25.29990158 ] } },
{ "type": "Feature", "properties": { "direccion": "MCAL. LOPEZ Y CERRO PORTEO", "tipo": "Estación de Servicio", "distrito": "FERNANDO DE LA MORA", "departamento": "CENTRAL", "distribuidor": "PETROPAR", "operador": "BENITEZ Y ASOCIADOS SA", "marker_icon": "PTP" }, "geometry": { "type": "Point", "coordinates": [ -57.54778711, -25.30713552 ] } },
{ "type": "Feature", "properties": { "direccion": "CAMPO VIA Y CURUPAYTY", "tipo": "Estación de Servicio", "distrito": "FERNANDO DE LA MORA", "departamento": "CENTRAL", "distribuidor": "PETROPAR", "operador": "GS TRADING IMPORT - EXPORT SRL", "marker_icon": "PTP" }, "geometry": { "type": "Point", "coordinates": [ -57.53696192, -25.32718688 ] } },
{ "type": "Feature", "properties": { "direccion": "DEFENSORES DEL CHACO Y JUAN DE SALAZAR", "tipo": "Estación de Servicio", "distrito": "FERNANDO DE LA MORA", "departamento": "CENTRAL", "distribuidor": "PETROPAR", "operador": "INNOVACIONES CREATIVAS SA", "marker_icon": "PTP" }, "geometry": { "type": "Point", "coordinates": [ -57.55557487, -25.3138295 ] } },
{ "type": "Feature", "properties": { "direccion": "DEFENSORES DEL CHACO Y JUAN DE SALAZAR", "tipo": "Estación de Servicio", "distrito": "FERNANDO DE LA MORA", "departamento": "CENTRAL", "distribuidor": "PUMA ENERGY PARAGUAY SA", "operador": "EPIFANIO MUÑOZ ROMAN", "marker_icon": "PUM" },